학교명,학교급,학교특성,주소,위도,경도,전화번호,홈페이지 주소,남녀공학
국립국악고등학교,4,특수목적고등학교,"서울특별시 강남구 개포로22길 65 (개포동, 국악고등학교)",37.4762299,127.0514757,02-3460-0500,http://gugak.sen.hs.kr,공학
서울대학교사범대학부설고등학교,4,일반고등학교,서울특별시 성북구 월곡로 6 (종암동),37.59472375,127.0381187,02-913-7305,https://snu.sen.hs.kr/,공학
국립전통예술고등학교,4,특수목적고등학교,서울특별시 금천구 시흥대로38길 62 (시흥동),37.446354,126.906414,02-896-1094,http://kugak-am.sen.hs.kr,공학
가락고등학교,4,일반고등학교,"서울특별시 송파구 송이로 42 (송파동,가락고등학교)",37.501637,127.116943,02-416-4658,http://garak.sen.hs.kr,공학
강동고등학교,4,일반고등학교,서울특별시 강동구 구천면로 572 (상일동),37.54989,127.160702,02-427-0231,http://kangdong.sen.hs.kr,공학
강서고등학교,4,일반고등학교,"서울특별시 양천구 목동중앙남로 27 , 강서고등학교 (목동)",37.5367773,126.8663295,02-2642-0725,http://gangseo.sen.hs.kr,남
개포고등학교,4,일반고등학교,"서울특별시 강남구 개포로 402 (개포동, 개포고등학교)",37.48495876,127.0594054,02-576-3333,http://gaepo.sen.hs.kr,공학
건국대학교사범대학부속고등학교,4,일반고등학교,"서울특별시 광진구 능동로 120 , 건국대학교사범대학부속고등학교 (화양동)",37.54006,127.08034,070-7012-3500,http://konkuk.sen.hs.kr,공학
경기고등학교,4,일반고등학교,"서울특별시 강남구 영동대로 643 , 경기고등학교 (삼성동)",37.51756598,127.0560739,02-3496-7300,http://kyunggi.sen.hs.kr,남
경기여자고등학교,4,일반고등학교,"서울특별시 강남구 삼성로 29 , 경기여자고등학교 (개포동)",37.48688726,127.0655669,02-573-6797,http://kgg.sen.hs.kr,녀
경동고등학교,4,일반고등학교,"서울특별시 성북구 보문로29길 49 (삼선동3가, 경동고등학교)",37.5862,127.014664,02-928-2353,http://kyungdong.sen.hs.kr,남
경문고등학교,4,일반고등학교,"서울특별시 동작구 동작대로 171 , 경문고등학교 (동작동)",37.49309576,126.9816993,02-535-1301,http://kyungmoon.sen.hs.kr,남
경복고등학교,4,일반고등학교,"서울특별시 종로구 자하문로28가길 9 , 경복고등학교 (청운동,경복고등학교)",37.587418,126.971434,02-397-5301,http://kyungbock.sen.hs.kr,남
경복여자고등학교,4,일반고등학교,"서울특별시 강서구 화곡로63길 40 , 경복여자고등학교 (등촌동)",37.55782075,126.8505974,02-3661-1741,http://kb.sen.hs.kr,녀
경성고등학교,4,일반고등학교,"서울특별시 마포구 성미산로 111 , 경성고등학교 (연남동)",37.563341,126.918767,02-3140-1168,http://gyeongseong.sen.hs.kr,남
경신고등학교,4,일반고등학교,"서울특별시 종로구 혜화로 74 (혜화동,경신중고등학교)",37.592173,127.000227,02-762-0393,http://kyungshin.sen.hs.kr,남
경인고등학교,4,일반고등학교,"서울특별시 구로구 경인로46길 31 , 경인고등학교 (고척동)",37.49599386,126.8654306,02-2618-3043,http://kyeongin.sen.hs.kr,공학
경희고등학교,4,자율고등학교,"서울특별시 동대문구 경희대로 26 (회기동, 경희고등학교)",37.594912,127.054904,02-966-3782,http://www.kyungheeboy.hs.kr/,남
경희여자고등학교,4,일반고등학교,"서울특별시 동대문구 경희대로 26 , 경희여자고등학교 (회기동)",37.594927,127.051115,02-966-4560,http://kyunghee.sen.hs.kr,녀
계성고등학교,4,일반고등학교,"서울특별시 성북구 길음로 63 , 계성고등학교 (길음동)",37.60771,127.02031,02-728-6100,gyeseong.sen.hs.kr,공학
고려대학교사범대학부속고등학교,4,일반고등학교,"서울특별시 성북구 정릉로 161 , 고려대학교사범대학부속고등학교 (정릉동)",37.609816,127.001571,02-914-7483,http://koreahi.sen.hs.kr,남
고척고등학교,4,일반고등학교,"서울특별시 구로구 중앙로15길 162 , 고척고등학교 (고척동, 고척고등학교)",37.50804857,126.8498688,02-2616-9813,http://gocheok.sen.hs.kr,공학
공항고등학교,4,일반고등학교,"서울특별시 강서구 방화대로34길 43 (마곡동, 공항고등학교)",37.570122,126.81842,02-2664-6874,http://konghang.sen.hs.kr,공학
관악고등학교,4,일반고등학교,서울특별시 영등포구 영등포로6길 26 (양평동2가),37.52179202,126.8829228,02-2633-5954,http://kwan-ak.sen.hs.kr,공학
광남고등학교,4,일반고등학교,"서울특별시 광진구 아차산로70길 17-16 , 광남고등학교 (광장동,광남고등학교)",37.54151337,127.1012125,02-2204-8705,http://gwang-nam.sen.hs.kr,공학
광문고등학교,4,일반고등학교,"서울특별시 강동구 동남로 968 , 광문고등학교 (고덕동)",37.56046136,127.1585483,02-427-2870,http://gwangmun.sen.hs.kr,공학
광성고등학교,4,일반고등학교,서울특별시 마포구 신수로8길 20 (신수동),37.5486226,126.9363687,02-703-3457,http://kwangsung.sen.hs.kr,남
광신고등학교,4,일반고등학교,"서울특별시 관악구 광신길 141 (신림동,광신중고등학교)",37.46447593,126.9259388,02-881-8532,http://kwangshin.sen.hs.kr,공학
광양고등학교,4,일반고등학교,서울특별시 광진구 자양로3가길 31 (자양동),37.52945348,127.0852409,02-446-1435,http://gwangyang.sen.hs.kr,공학
광영고등학교,4,일반고등학교,"서울특별시 양천구 남부순환로30길 17 (신월동,광영고등학교)",37.53719702,126.8232754,02-2650-2300,http://ky.sen.hs.kr,남
광영여자고등학교,4,일반고등학교,"서울특별시 양천구 남부순환로30길 17 , 광영여자고등학교 (신월동)",37.53774,126.82489,02-2697-5553,http://kyg.sen.hs.kr,녀
구로고등학교,4,일반고등학교,"서울특별시 구로구 가마산로27길 45 , 구로고등학교 (구로동)",37.49884153,126.8903093,02-851-2065,http://guro.sen.hs.kr,공학
구일고등학교,4,일반고등학교,서울특별시 구로구 구일로 90-51 (구로동),37.49441003,126.8739422,02-858-2549,http://guil.sen.hs.kr,공학
압구정고등학교,4,일반고등학교,"서울특별시 강남구 압구정로39길 20 , 압구정고등학교 (압구정동)",37.530973,127.032648,02-549-0213,http://apgujeong.sen.hs.kr,공학
금옥여자고등학교,4,일반고등학교,서울특별시 양천구 신정로 213 (신정동),37.510928,126.844582,02-2086-7502,http://geumok.sen.hs.kr,녀
금천고등학교,4,일반고등학교,"서울특별시 금천구 시흥대로38길 26 (시흥동,금천고등학교)",37.445022,126.905691,02-896-3181,https://geumcheon.sen.hs.kr,공학
남강고등학교,4,일반고등학교,서울특별시 관악구 난곡로34길 80 (신림동),37.472357,126.924738,02-839-1701,http://namkang.sen.hs.kr,남
노원고등학교,4,일반고등학교,서울특별시 노원구 노원로 586 (상계동),37.6628057,127.0532928,02-937-0079,http://nowon.sen.hs.kr,공학
단국대학교사범대학부속고등학교,4,일반고등학교,서울특별시 강남구 도곡로64길 21 (대치동),37.495834,127.056676,02-2191-2600,http://dan-kook.sen.hs.kr,남
당곡고등학교,4,일반고등학교,"서울특별시 관악구 봉천로21길 108 , 당곡고등학교 (봉천동)",37.491688,126.934635,02-6717-5200,http://danggok.sen.hs.kr,공학
대광고등학교,4,자율고등학교,"서울특별시 동대문구 안암로 6 , 대광고등학교 (신설동)",37.577939,127.024586,02-940-2200,http://www.dgh.hs.kr,남
대성고등학교,4,일반고등학교,"서울특별시 은평구 갈현로29길 51-24 , 대성고등학교 (갈현동)",37.62316997,126.9093611,02-6252-1000,http://dae-sung.sen.hs.kr,남
대신고등학교,4,일반고등학교,서울특별시 종로구 사직로 9 (행촌동),37.5735255,126.9618728,02-736-0317,http://daeshin.sen.hs.kr,남
대영고등학교,4,일반고등학교,"서울특별시 영등포구 도림로86길 16 (신길동, 대영고등학교)",37.5031524,126.9059783,02-847-2019,http://dy.sen.hs.kr,공학
대원고등학교,4,일반고등학교,"서울특별시 광진구 용마산로22길 26 , 대원고등학교 (중곡동)",37.563177,127.089494,02-2204-1570,http://daewon.sen.hs.kr,남
대원여자고등학교,4,일반고등학교,서울특별시 광진구 용마산로22길 26 (중곡동),37.5624945,127.089438,02-2204-1620,http://dwg.sen.hs.kr,녀
대일고등학교,4,일반고등학교,서울특별시 강서구 등촌로35길 90 대일고등학교,37.539175,126.862546,070-4020-6400,https://daeil.sen.hs.kr/index.do,남
대진고등학교,4,일반고등학교,"서울특별시 노원구 공릉로62가길 47 , 대진고등학교 (하계동)",37.63780505,127.076091,02-976-0067,http://daejin.sen.hs.kr,남
대진여자고등학교,4,일반고등학교,"서울특별시 노원구 공릉로 438 , 대진여자고등학교 (중계동)",37.64612473,127.0671978,02-979-2327,http://daejinw.sen.hs.kr,녀
대진디자인고등학교,4,특성화고등학교,"서울특별시 강남구 광평로39길 93 (수서동,대진디자인고등학교)",37.49042725,127.0959782,02-2226-8418,http://daejindesign.sen.hs.kr,공학
덕성여자고등학교,4,일반고등학교,"서울특별시 종로구 율곡로3길 50 , 덕성여자고등학교 (안국동)",37.57776127,126.9835578,02-734-6871,http://duksung.sen.hs.kr,녀
덕원여자고등학교,4,일반고등학교,"서울특별시 강서구 강서로45길 91-44 (내발산동,덕원여자고등학교)",37.54862294,126.8290243,02-2660-7800,http://deokwon.sen.hs.kr,녀
독산고등학교,4,일반고등학교,"서울특별시 금천구 문성로 64 , 독산고등학교 (독산동)",37.47671261,126.9110108,02-857-6248,http://doksan.sen.hs.kr,공학
동국대학교사범대학부속고등학교,4,일반고등학교,"서울특별시 동대문구 장안벚꽃로 201 (장안동,동국대학교사범대학부속고등학교)",37.577479,127.074495,02-6913-1511,http://ddbk.sen.hs.kr,남
동덕여자고등학교,4,일반고등학교,"서울특별시 서초구 효령로2길 123-5 , 동덕여자고등학교 (방배동)",37.47587683,126.9919958,02-586-5418,http://dongduk.sen.hs.kr,녀
동명여자고등학교,4,일반고등학교,"서울특별시 은평구 통일로 793 (대조동,동명여자고등학교)",37.61447741,126.9250155,02-385-0652,http://dongmyung.sen.hs.kr,녀
동북고등학교,4,일반고등학교,서울특별시 강동구 강동대로 305 (둔촌동),37.51971854,127.1412227,02-477-2280,http://dongbuk.sen.hs.kr,남
동성고등학교,4,일반고등학교,"서울특별시 종로구 대학로 156 (혜화동,동성중고교)",37.58497032,127.0030976,02-3671-9100,http://www.dongsung.hs.kr,남
동일여자고등학교,4,일반고등학교,"서울특별시 금천구 탑골로10길 45 (시흥동, 동일여자고등학교)",37.45098,126.91627,02-803-9806,http://dongilg.sen.hs.kr,녀
서울매그넷고등학교,4,특성화고등학교,"서울특별시 금천구 탑골로10길 45 (시흥동, 동일여자상업고등학교)",37.451491,126.917384,02-807-6333,seoulmagnet.sen.hs.kr,녀
동작고등학교,4,일반고등학교,"서울특별시 동작구 솔밭로 51 (사당동,동작고등학교(복합정보센타))",37.48242773,126.9652308,02-588-4196,http://dongjak.sen.hs.kr,공학
둔촌고등학교,4,일반고등학교,"서울특별시 강동구 명일로 140 (둔촌동,둔촌고등학교)",37.53143204,127.1438107,02-480-3300,https://doonchon.sen.hs.kr/,공학
마포고등학교,4,일반고등학교,"서울특별시 강서구 화곡로 403 (등촌동,마포고등학교)",37.55998993,126.8531328,02-3663-2583,http://mapo.sen.hs.kr,남
면목고등학교,4,일반고등학교,"서울특별시 중랑구 용마산로72길 36-14 (면목동,면목고등학교)",37.584781,127.096719,02-435-0002,http://mmhs.sen.hs.kr,남
명덕고등학교,4,일반고등학교,"서울특별시 강서구 강서로47길 34-10 (내발산동,명덕고등학교)",37.554327,126.83545,02-2664-8817,http://myungduk.sen.hs.kr,남
명덕여자고등학교,4,일반고등학교,서울특별시 강서구 강서로47길 34-10 (내발산동),37.553987,126.834306,02-2664-8815,mdgh.sen.hs.kr,녀
동국대학교사범대학부속가람고등학교,4,일반고등학교,서울특별시 광진구 광나루로36길 47 동국대학교사범대학부속가람고등학교,37.54321,127.087073,02-2049-1577,https://garam.sen.hs.kr,공학
명일여자고등학교,4,일반고등학교,"서울특별시 강동구 명일로 350 (명일동,명일여자고등학교)",37.54977642,127.1495812,02-481-8192,http://myungil.sen.hs.kr,녀
명지고등학교,4,일반고등학교,"서울특별시 서대문구 명지2길 56 , 명지고등학교 (홍은동)",37.58425,126.927381,02-303-1540,http://myongji.sen.hs.kr,공학
무학여자고등학교,4,일반고등학교,서울특별시 성동구 고산자로 197 무학여자고등학교,37.55676803,127.0335995,02-2200-1724,http://muhak.sen.hs.kr,녀
서울문영여자고등학교,4,일반고등학교,"서울특별시 관악구 관악로 85 , 서울문영여자고등학교 (봉천동)",37.473416,126.951081,02-873-3622,http://moonyoung.sen.hs.kr,녀
문일고등학교,4,일반고등학교,서울특별시 금천구 시흥대로47길 45 (시흥동),37.449124,126.898969,02-802-2301,http://moonil.sen.hs.kr,남
미림여자고등학교,4,일반고등학교,"서울특별시 관악구 호암로 546 , 미림여자고등학교 (신림동)",37.466758,126.933272,02-886-1811,https://mirim.sen.hs.kr/,녀
반포고등학교,4,일반고등학교,"서울특별시 서초구 고무래로 71 (반포동,반포고등학교)",37.50270436,127.0165117,02-2258-4300,http://banpo.sen.hs.kr,공학
배명고등학교,4,일반고등학교,"서울특별시 송파구 삼학사로 11 , 배명고등학교 (삼전동)",37.4988176,127.0957019,070-4014-2632,http://bm.sen.hs.kr,남
배문고등학교,4,일반고등학교,서울특별시 용산구 효창원로 258 (서계동),37.550311,126.964274,02-3480-7100,http://www.baemoon.hs.kr,남
배재고등학교,4,자율고등학교,"서울특별시 강동구 고덕로 227 (고덕동,배재중 고등학교)",37.556089,127.150977,02-428-1885,www.paichai.hs.kr,남
배화여자고등학교,4,일반고등학교,"서울특별시 종로구 필운대로1길 34 (필운동,배화여자고등학교)",37.57837045,126.9669116,02-724-0300,http://paiwha.sen.hs.kr,녀
백암고등학교,4,일반고등학교,"서울특별시 양천구 신정로13길 16 , 백암고등학교 (신정동)",37.511928,126.8448662,02-2696-0110,http://baegam.sen.hs.kr,공학
보성고등학교,4,일반고등학교,"서울특별시 송파구 양재대로 1278 (방이동,보성중고등학교)",37.5194034,127.135273,02-2152-2430,http://posung.sen.hs.kr,남
보성여자고등학교,4,일반고등학교,"서울특별시 용산구 신흥로3가길 66 , 보성여자고등학교 (용산동2가)",37.54308019,126.9842851,02-6328-9628,http://bosung.sen.hs.kr,녀
삼성고등학교,4,일반고등학교,서울특별시 관악구 신림로 41 (신림동),37.46913853,126.9436684,02-871-7583,http://samsung.sen.hs.kr,공학
상계고등학교,4,일반고등학교,"서울특별시 노원구 노해로 432 (상계동, 상계고등학교)",37.65272604,127.0554547,02-6477-0700,http://sanggye.sen.hs.kr,남
상명대학교사범대학부속여자고등학교,4,일반고등학교,"서울특별시 종로구 홍지문2길 20 (홍지동,상명대학교)",37.603516,126.953837,02-396-6302,http://sangmyung-agh.sen.hs.kr,녀
상명고등학교,4,일반고등학교,서울특별시 노원구 덕릉로 553 (중계동),37.64954799,127.068044,02-971-6211,http://sangmyung.sen.hs.kr,공학
상문고등학교,4,일반고등학교,"서울특별시 서초구 명달로 45 (방배동,상문고등학교)",37.47975498,127.0039164,02-586-3141,http://sangmoon.sen.hs.kr,남
상일여자고등학교,4,일반고등학교, ,37.54922,127.169635,02-428-0435,http://sangil.hs.kr,녀
서라벌고등학교,4,일반고등학교,"서울특별시 노원구 한글비석로5길 18 , (중계1동 313, 서라벌고등학교)",37.6452418,127.0758368,02-2092-2200,http://sorabol.sen.hs.kr,남
서문여자고등학교,4,일반고등학교,"서울특별시 서초구 동광로12길 84 (방배동,서문여자고등학교)",37.4885743,126.985083,02-599-6061,http://suhmoon.sen.hs.kr,녀
서울고등학교,4,일반고등학교,"서울특별시 서초구 효령로 197 (서초동,서울고등학교)",37.48429243,127.0049025,02-582-8151,http://seoul.sen.hs.kr,남
서울미술고등학교,4,일반고등학교,"서울특별시 관악구 남부순환로247길 26 (봉천동,서울미술고등학교)",37.477056,126.966983,02-872-2111,http://seoul-art.sen.hs.kr,공학
서울세종고등학교,4,일반고등학교,"서울특별시 강남구 광평로51길 36 , 서울세종고등학교 (수서동)",37.490313,127.102365,070-8668-3119,http://seoulsejong.sen.hs.kr,공학
서울여자고등학교,4,일반고등학교,"서울특별시 마포구 백범로25길 34 , 서울여자고등학교 (염리동)",37.548077,126.9481861,02-703-2211,http://seoulgs.sen.hs.kr,녀
서울체육고등학교,4,특수목적고등학교,"서울특별시 송파구 강동대로 232 , 서울체육고등학교 (방이동)",37.5217588,127.1305913,02-2140-9801,http://seoul-ph.sen.hs.kr,공학
서초고등학교,4,일반고등학교,서울특별시 서초구 반포대로27길 29 (서초동),37.48961196,127.0053778,02-584-4234,http://seocho.sen.hs.kr,공학
석관고등학교,4,일반고등학교,"서울특별시 성북구 한천로70길 30 , 석관고등학교 (석관동)",37.60958821,127.0667165,02-958-1000,http://seokgwan.sen.hs.kr,공학
선덕고등학교,4,자율고등학교,"서울특별시 도봉구 시루봉로 53 ,  선덕고등학교 (쌍문동)",37.65507873,127.0261507,02-997-4111,http://sunduck.sen.hs.kr,남
선일여자고등학교,4,일반고등학교,서울특별시 은평구 갈현로29길 27 (갈현동),37.61914,126.91287,02-355-5649,http://sunil.sen.hs.kr,녀
선정고등학교,4,일반고등학교,"서울특별시 은평구 서오릉로20길 19 , 선정고등학교 (갈현동)",37.61870442,126.9090313,02-3156-1500,http://sunjung.sen.hs.kr,공학
성남고등학교,4,일반고등학교,"서울특별시 동작구 대방동길 74 , 성남고등학교 (대방동)",37.506078,126.926218,02-815-3645,http://sungnam.sen.hs.kr,남
성동고등학교,4,일반고등학교,"서울특별시 중구 퇴계로90길 17 , 성동고등학교 (신당동)",37.56416247,127.0223883,02-2237-2412,http://sungdong.sen.hs.kr,남
성보고등학교,4,일반고등학교,"서울특별시 관악구 남부순환로156길 39 (신림동,성보고등학교)",37.479815,126.919719,02-862-8409,http://sungbo.sen.hs.kr,남
성신여자고등학교,4,일반고등학교,서울특별시 성북구 동소문로26가길 80 (돈암동),37.5942881,127.0224064,02-6930-9100,http://sungshin.sen.hs.kr,녀
성심여자고등학교,4,일반고등학교,"서울특별시 용산구 원효로19길 49 , 성심여자고등학교 (원효로4가)",37.5343665,126.9537281,02-702-5501,http://sacredheart.sen.hs.kr,녀
세화고등학교,4,자율고등학교,서울특별시 서초구 신반포로 56-7 (반포동),37.50195197,126.9916176,02-594-8721,http://sehwa.sen.hs.kr,남
세화여자고등학교,4,자율고등학교,"서울특별시 서초구 신반포로 56-7 , 세화여자고등학교",37.5021638,126.9932495,02-537-2131,https://sehwags.sen.hs.kr/,녀
송곡고등학교,4,일반고등학교,"서울특별시 중랑구 양원역로 50 (망우동,송곡고등학교)",37.60584697,127.1064637,02-435-0660,http://sg.sen.hs.kr,남
송곡여자고등학교,4,일반고등학교,서울특별시 중랑구 양원역로 67 (망우동),37.6063172,127.1053091,02-434-4598,http://songgok.sen.hs.kr,녀
수도여자고등학교,4,일반고등학교,"서울특별시 동작구 여의대방로10길 73 , 수도여자고등학교 (신대방동)",37.4933845,126.915414,02-2102-3506,http://sudogh.sen.hs.kr,녀
수락고등학교,4,일반고등학교,"서울특별시 노원구 동일로245길 143 (상계동,수락고등학교)",37.6827335,127.0535593,070-4016-9000,http://surak.sen.hs.kr,공학
숙명여자고등학교,4,일반고등학교,"서울특별시 강남구 남부순환로 2807 , 숙명여자고등학교 (도곡동)",37.49147446,127.0526124,02-3462-5011,http://sm.sen.hs.kr,녀
숭문고등학교,4,일반고등학교,서울특별시 마포구 숭문길 99 (대흥동),37.55088946,126.9457706,02-716-2980,http://soongmoon.sen.hs.kr,남
숭실고등학교,4,일반고등학교,서울특별시 은평구 은평터널로7길 6 (신사동),37.59287316,126.9024048,02-373-5910,http://soongsil.sen.hs.kr,남
숭의여자고등학교,4,일반고등학교,"서울특별시 동작구 여의대방로36길 79 , 숭의여자고등학교 (대방동)",37.50736234,126.9292442,02-810-7800,http://soongeui.sen.hs.kr,녀
신광여자고등학교,4,일반고등학교,"서울특별시 용산구 청파로 263 , 신광여자고등학교 (청파동3가)",37.54290069,126.9694483,02-710-6940,http://shinkwang.sen.hs.kr,녀
신림고등학교,4,일반고등학교,"서울특별시 관악구 문성로 119 , 신림고등학교 (신림동)",37.4783835,126.9166401,02-6219-8300,http://sillim.sen.hs.kr,공학
신목고등학교,4,일반고등학교,"서울특별시 양천구 안양천로 739 (신정동,신목고등학교)",37.512763,126.873615,070-8720-5010,http://shinmok.sen.hs.kr,공학
신일고등학교,4,자율고등학교,"서울특별시 강북구 솔매로49길 20 (미아동,신일중고등학교)",37.62819,127.027724,02-944-9900,http://www.shin-il.hs.kr,남
양재고등학교,4,일반고등학교,"서울특별시 서초구 남부순환로346길 9 (서초동,양재고등학교)",37.48242128,127.0320783,02-571-4457,http://yangjae.sen.hs.kr,공학
양정고등학교,4,자율고등학교,"서울특별시 양천구 안양천로 1039 (목동,양정고등학교)",37.5348671,126.8869776,02-2649-7071,http://www.yangchung.hs.kr,남
양천고등학교,4,일반고등학교,"서울특별시 양천구 신정로14길 13 (신정동,양천고등학교)",37.508667,126.845736,02-2605-5996,http://yangcheon.sen.hs.kr,남
목동고등학교,4,일반고등학교,"서울특별시 양천구 목동동로2길 68 , 목동고등학교 (신정동)",37.50921453,126.8601996,02-2652-1701,https://mokdong.sen.hs.kr/,녀
언남고등학교,4,일반고등학교,"서울특별시 서초구 동산로13길 35 (양재동,언남고등학교)",37.47233011,127.0430034,02-575-2680,http://eonnam.sen.hs.kr,공학
여의도고등학교,4,일반고등학교,"서울특별시 영등포구 국제금융로7길 37 , 여의도고등학교 (여의도동)",37.52505011,126.9342187,02-782-0802,http://yeouido.sen.hs.kr,남
여의도여자고등학교,4,일반고등학교,"서울특별시 영등포구 국제금융로7가길 13 , 여의도여자고등학교 (여의도동)",37.52288819,126.9350894,02-3780-4400,http://yeouido-gh.sen.hs.kr,녀
염광고등학교,4,일반고등학교,서울특별시 노원구 월계로45가길 9 (월계동),37.628422,127.049528,02-905-4221,http://yumkwang.sen.hs.kr,공학
영동고등학교,4,일반고등학교,"서울특별시 강남구 선릉로 742 (청담동, 영동고등학교)",37.520183,127.043348,02-542-5071,yd.sen.hs.kr,남
영동일고등학교,4,일반고등학교,"서울특별시 송파구 석촌호수로 93 , 영동일고등학교 (잠실동)",37.5100019,127.0898685,02-430-6822,http://ydi.sen.hs.kr,공학
영등포고등학교,4,일반고등학교,"서울특별시 동작구 등용로8길 5 (대방동,영등포고등학교)",37.508441,126.933946,02-816-8323,http://ydp.sen.hs.kr,남
영등포여자고등학교,4,일반고등학교,"서울특별시 영등포구 영등포로62길 13 , 영등포여자고등학교  (신길동)184-3",37.51539016,126.9153554,02-843-0479,http://ydpg.sen.hs.kr,녀
영락고등학교,4,일반고등학교,"서울특별시 관악구 청룡16길 25 , 영락고등학교 (봉천동)",37.476283,126.944206,02-884-1003,https://yrgo.sen.hs.kr/,공학
서울영상고등학교,4,특성화고등학교,"서울특별시 양천구 목동로11길 46 , 서울영상고등학교 (신정동)",37.52330273,126.8602955,02-2602-7121,http://youngsang.sen.hs.kr,공학
영신고등학교,4,일반고등학교,"서울특별시 영등포구 대방천로14길 18 , 영신고등학교 (신길동,영신고등학교)",37.49748,126.90952,02-834-6051,http://youngsin.sen.hs.kr,공학
영신여자고등학교,4,일반고등학교,"서울특별시 노원구 중계로16나길 13 (중계동,영신여자고등학교)",37.6524538,127.0832769,02-930-8455,http://ys.sen.hs.kr,녀
영일고등학교,4,일반고등학교,"서울특별시 강서구 등촌로51가길 26 , 영일고등학교 (등촌동)",37.54728582,126.8620613,02-2653-8134,http://youngil.sen.hs.kr,남
영파여자고등학교,4,일반고등학교,"서울특별시 송파구 올림픽로 565 , 영파여자고등학교 (풍납동)",37.5321334,127.1198218,02-483-8881,http://youngpa.sen.hs.kr,녀
영훈고등학교,4,일반고등학교,"서울특별시 강북구 도봉로13가길 19 (미아동,학교법인영훈학원)",37.613509,127.027784,02-986-2500,http://younghoon.sen.hs.kr,공학
예일여자고등학교,4,일반고등학교,"서울특별시 은평구 연서로 117 , 예일여자고등학교 (구산동,수위실)",37.6108146,126.9153478,02-380-0812,www.yale.hs.kr,녀
오금고등학교,4,일반고등학교,서울특별시 송파구 중대로 247 (오금동),37.504526,127.129541,02-406-0592,http://ogeum.sen.hs.kr,공학
오류고등학교,4,일반고등학교,"서울특별시 구로구 오리로21길 2 (궁동, 오류고등학교)",37.500202,126.828238,02-2684-2300,http://oryu.sen.hs.kr,녀
오산고등학교,4,일반고등학교,서울특별시 용산구 보광로7길 17 (보광동),37.523464,126.999574,02-7999-500,http://osan.sen.hs.kr,남
용문고등학교,4,일반고등학교,"서울특별시 성북구 고려대로17가길 46 (안암동2가, 용문중고등학교)",37.5879326,127.0251981,02-928-3871,http://yongmoon.sen.hs.kr,남
용산고등학교,4,일반고등학교,"서울특별시 용산구 두텁바위로 60 (용산동2가,용산고등학교)",37.54586549,126.9803285,02-3706-6700,http://yongsan.sen.hs.kr,남
용화여자고등학교,4,일반고등학교,"서울특별시 노원구 동일로 1461 , 용화여자고등학교 (상계동,용화여자고등학교)",37.65913246,127.0582791,02-950-3500,http://www.yonghwa.hs.kr/,녀
우신고등학교,4,일반고등학교,"서울특별시 구로구 부일로 917 , 우신고등학교 (궁동)",37.495324,126.826705,02-2610-1599,http://wooshin.sen.hs.kr,남
은광여자고등학교,4,일반고등학교,서울특별시 강남구 남부순환로359길 36 (도곡동),37.4879414,127.0359252,02-3462-2005,http://eunkwang.sen.hs.kr,녀
은평메디텍고등학교,4,특성화고등학교,"서울특별시 은평구 진관2로 57-57 (진관동,은평메디텍고등학교)",37.635284,126.929185,070-4020-6800,http://eunpyeong.sen.hs.kr,공학
이화여자고등학교,4,자율고등학교,서울특별시 중구 정동길 26 (정동),37.56569982,126.9705573,02-752-3353,http://www.ewha.hs.kr,녀
이화여자대학교사범대학부속이화금란고등학교,4,일반고등학교,"서울특별시 서대문구 성산로 560 , 이대부속고등학교 (대신동)",37.56636584,126.947661,02-361-6200,http://edaebugo.sen.hs.kr,공학
인창고등학교,4,일반고등학교,"서울특별시 서대문구 경기대로 65 , 인창고등학교 (충정로2가)",37.565414,126.963492,02-360-3700,http://inchang.sen.hs.kr,남
인헌고등학교,4,일반고등학교,"서울특별시 관악구 인헌9길 74 (봉천동,인헌고등학교)",37.47230902,126.9704855,02-886-6253,inhun.sen.hs.kr,공학
자양고등학교,4,일반고등학교,"서울특별시 광진구 뚝섬로37길 28 (자양동,자양고등학교)",37.5357534,127.0729905,02-2049-4100,http://jayang.sen.hs.kr,공학
잠신고등학교,4,일반고등학교,"서울특별시 송파구 잠실로 24 , 잠신고등학교 (잠실동)",37.51470635,127.0882634,02-417-8771,http://jamsin.sen.hs.kr,공학
잠실고등학교,4,일반고등학교,"서울특별시 송파구 올림픽로33길 71 , 잠실고등학교 (신천동)",37.5226167,127.1062937,02-2141-3700,http://jamsil.sen.hs.kr,남
잠실여자고등학교,4,일반고등학교,서울특별시 송파구 송파대로38길 8 (송파동) 잠실여자고등학교,37.5023233,127.1130974,02-2140-8031,http://jamsilg.sen.hs.kr,녀
장충고등학교,4,일반고등학교,서울특별시 중구 동호로15길 93 (신당동),37.5526811,127.006058,02-2233-9990,http://jangchung.sen.hs.kr,공학
장훈고등학교,4,일반고등학교,"서울특별시 영등포구 영등포로64길 26 , 장훈고등학교 (신길동)",37.5133437,126.9162309,02-842-6921,http://www.janghoon.hs.kr,남
재현고등학교,4,일반고등학교,"서울특별시 노원구 덕릉로82길 64 , 재현고등학교 (중계동)",37.660141,127.079847,02-932-4812,http://jaehyun.sen.hs.kr,남
정신여자고등학교,4,일반고등학교,"서울특별시 송파구 올림픽로4길 16 , 정신여자고등학교 (잠실동)",37.508824,127.071909,02-423-4013,https://chungshin.sen.hs.kr,녀
정의여자고등학교,4,일반고등학교,"서울특별시 도봉구 노해로49길 69 (쌍문동,정의여자고등학교)",37.652905,127.031038,02-992-5106,http://jeongeui.sen.hs.kr,녀
중경고등학교,4,일반고등학교,서울특별시 용산구 이촌로84길 34 (이촌동),37.5176813,126.9756393,02-793-2540,http://jungkyung.sen.hs.kr,공학
중동고등학교,4,자율고등학교,서울특별시 강남구 일원로 7 (일원동),37.49371459,127.0809111,02-3411-0100,www.joongdong.hs.kr,남
중산고등학교,4,일반고등학교,"서울특별시 강남구 일원로14길 22 (일원동,중산고등학교)",37.48571689,127.0814362,02-2112-9000,http://www.jungsan.hs.kr,남
중앙고등학교,4,자율고등학교,서울특별시 종로구 창덕궁길 164 (계동),37.5840273,126.9868771,02-742-1321,http://choongang.sen.hs.kr,남
중앙대학교사범대학부속고등학교,4,일반고등학교,"서울특별시 강남구 선릉로 207 , 중앙대학교사범대학부속고등학교 (도곡동)",37.49190717,127.0521106,02-579-4005,http://cau.sen.hs.kr,공학
중앙여자고등학교,4,일반고등학교,서울특별시 서대문구 북아현로11가길 7 (북아현동),37.5626955,126.9527025,02-362-3062,http://jungang-girls.sen.hs.kr,녀
중화고등학교,4,일반고등학교,"서울특별시 중랑구 봉화산로27길 62 (중화동, 중화고등학교)",37.604737,127.082893,02-491-6807,http://jung-hwa.sen.hs.kr,공학
진명여자고등학교,4,일반고등학교,"서울특별시 양천구 목동로 170 , 진명여자고등학교 (목동)",37.524048,126.8658553,02-2643-1711,http://jm.sen.hs.kr,녀
진선여자고등학교,4,일반고등학교,"서울특별시 강남구 선릉로85길 27 (진선여자고등학교,역삼동)",37.501828,127.046904,02-2148-0400,http://jinseon.sen.hs.kr,녀
창덕여자고등학교,4,일반고등학교,"서울특별시 송파구 양재대로 1240 , 창덕여자고등학교 (방이동)",37.5162418,127.1402751,02-401-4924,http://changduk.sen.hs.kr,녀
창동고등학교,4,일반고등학교,"서울특별시 도봉구 노해로62길 7 (창동, 창동고등학교)",37.65103523,127.0388183,02-3146-0600,http://changdong.sen.hs.kr,공학
창문여자고등학교,4,일반고등학교,"서울특별시 강북구 월계로 61 , 창문여자고등학교 (미아동)",37.6131144,127.0362812,02-986-1701,http://changmun.sen.hs.kr,녀
청담고등학교,4,일반고등학교,"서울특별시 강남구 압구정로 419 , 청담고등학교 (압구정동)",37.52800121,127.0437006,02-3496-8203,http://chungdam.sen.hs.kr,공학
청량고등학교,4,일반고등학교,"서울특별시 동대문구 왕산로 303 (청량리동, 청량고등학교)",37.58888754,127.0513131,02-959-4362,http://chungryang.sen.hs.kr,공학
청원고등학교,4,일반고등학교,"서울특별시 노원구 한글비석로 506 , 청원고등학교 (상계동)",37.666697,127.063081,02-3399-7771,http://cheongwon.sen.hs.kr,남
청원여자고등학교,4,일반고등학교,"서울특별시 노원구 한글비석로 506 , 청원여자고등학교 (상계동,청원초/중/고등학교)",37.666141,127.061236,02-3399-7811,http://cheongwon-gh.sen.hs.kr,녀
충암고등학교,4,일반고등학교,서울특별시 은평구 가좌로5길 5 (응암동),37.584813,126.921298,02-309-0236,http://cham.sen.hs.kr,남
태릉고등학교,4,일반고등학교,"서울특별시 중랑구 신내로23길 36 , 태릉고등학교 (묵동)",37.61916257,127.0855595,02-6211-8585,http://taereung.sen.hs.kr,공학
풍문고등학교,4,일반고등학교,서울특별시 강남구 자곡로 152 (자곡동),37.471327,127.0999477,02-3451-8800,https://poongmoon.sen.hs.kr,공학
한가람고등학교,4,일반고등학교,서울특별시 양천구 목동서로 15 (목동),37.5374633,126.8840071,02-2642-3862,http://www.hangaram.hs.kr,공학
한강미디어고등학교,4,특성화고등학교,"서울특별시 영등포구 선유로55길 22 (양평동4가,한강미디어고등학교)",37.53929199,126.8972608,02-2671-1448,https://hm.sen.hs.kr,공학
한광고등학교,4,일반고등학교,서울특별시 강서구 등촌로13길 110 (화곡동),37.53884398,126.8579401,070-7458-1003,http://hankwang.sen.hs.kr,공학
한국삼육고등학교,4,일반고등학교,서울특별시 노원구 화랑로 815 (공릉동),37.64335827,127.1088514,02-6395-3636,https://sahmyook.sen.hs.kr,공학
한서고등학교,4,일반고등학교,서울특별시 강서구 양천로11길 47 (방화동),37.5747918,126.8081443,02-2662-0021,http://hanseo.sen.hs.kr,공학
한성고등학교,4,일반고등학교,서울특별시 서대문구 북아현로1길 24 (북아현동),37.5598356,126.9545114,02-363-4943,http://hanseong.sen.hs.kr,남
한성여자고등학교,4,일반고등학교,"서울특별시 성북구 삼선교로16길 117 , 한성여자고등학교 (삼선동2가)",37.583201,127.011775,02-742-2845,http://hansung-g.sen.hs.kr,녀
한양대학교사범대학부속고등학교,4,자율고등학교,서울특별시 성동구 마조로 42 (사근동),37.56191893,127.042326,02-2200-3520,http://www.hanyang-u.hs.kr/,공학
한영고등학교,4,일반고등학교,"서울특별시 강동구 동남로 832 (상일동, 한영고등학교)",37.548915,127.158204,02-6954-1504,http://hanyoung.sen.hs.kr,공학
현대고등학교,4,자율고등학교,"서울특별시 강남구 압구정로 127 (압구정동, 현대고등학교)",37.525398,127.022736,02-546-6323,http://www.hyundai.hs.kr,공학
혜성여자고등학교,4,일반고등학교,서울특별시 노원구 노원로16길 2 (하계동),37.640785,127.073503,02-972-4040,http://hyesung.sen.hs.kr,녀
혜원여자고등학교,4,일반고등학교,서울특별시 중랑구 봉우재로58길 39 (망우동),37.59328087,127.0970432,02-434-5946,http://hyewon.sen.hs.kr,녀
혜화여자고등학교,4,일반고등학교,"서울특별시 강북구 인수봉로 127 (수유동,혜화여자고등학교)",37.6312378,127.0130453,02-985-8415,http://hyehwa-h.sen.hs.kr,녀
홍익대학교사범대학부속고등학교,4,일반고등학교,"서울특별시 성북구 성북로14가길 23 (성북동,홍익대학교부속중고등학교)",37.594336,127.003863,02-762-0826,hongik.sen.hs.kr,남
홍익대학교사범대학부속여자고등학교,4,일반고등학교,"서울특별시 마포구 성미산로 51 (성산동, 여자고등학교)",37.560173,126.91268,02-331-7584,http://hongik68.sen.hs.kr,녀
화곡고등학교,4,일반고등학교,"서울특별시 강서구 강서로45길 69 , 화곡고등학교 (내발산동)",37.5480514,126.831698,070-8277-2900,http://hwagok.sen.hs.kr,남
환일고등학교,4,일반고등학교,서울특별시 중구 환일길 47 (만리동2가),37.55382591,126.96221,02-390-7113,https://www.hwanil.hs.kr,남
휘경여자고등학교,4,일반고등학교,"서울특별시 동대문구 한천로 247 (휘경동,휘경여자고등학교)",37.583858,127.067362,02-2245-2307,http://hwikyung.sen.hs.kr,녀
휘문고등학교,4,자율고등학교,서울특별시 강남구 역삼로 541 (대치동),37.505109,127.06142,02-500-9500,http://www.whimoon.hs.kr/,남
서울과학고등학교,4,특수목적고등학교,서울특별시 종로구 혜화로 63 (명륜1가),37.5915572,126.9984688,02-740-6299,http://www.sshs.hs.kr,공학
한성과학고등학교,4,특수목적고등학교,"서울특별시 서대문구 통일로 279-79 , 한성과학고등학교 (현저동)",37.57602,126.95279,02-6917-0000,https://hansungsh.sen.hs.kr,공학
대원외국어고등학교,4,특수목적고등학교,서울특별시 광진구 용마산로22길 26 (중곡동),37.563653,127.089124,02-2204-1530,http://www.dwfl.hs.kr/,공학
대일외국어고등학교,4,특수목적고등학교,"서울특별시 성북구 서경로 116 (정릉동,대일외국어고등학교)",37.61330387,127.0141757,02-940-1000,www.daeil.or.kr,공학
명덕외국어고등학교,4,특수목적고등학교,"서울특별시 강서구 강서로47길 34-10 , 명덕외국어고등학교 (내발산동,명덕고등학교)",37.55424,126.83343,02-2665-8821,http://www.mdfh.or.kr,공학
서울외국어고등학교,4,특수목적고등학교,서울특별시 도봉구 덕릉로66길 22 (창동),37.64577944,127.0515108,1670-1005,https://sflhs.kr,공학
이화여자외국어고등학교,4,특수목적고등학교,서울특별시 중구 통일로4길 30 (순화동),37.56557705,126.9696428,02-2176-1992,http://www.ewha-gfh.hs.kr,녀
한영외국어고등학교,4,특수목적고등학교,서울특별시 강동구 동남로 832 (상일동),37.548158,127.157312,02-6954-1703,http://hyfl.sen.hs.kr,공학
서울로봇고등학교,4,특수목적고등학교,"서울특별시 강남구 광평로20길 63 , 서울로봇고등학교 (일원동)",37.48068363,127.0843296,02-2226-2141,http://srobot.sen.hs.kr,공학
서울디지털콘텐츠고등학교,4,특성화고등학교,"서울특별시 강서구 방화대로47길 9 (방화동,서울디지털콘텐츠고등학교)",37.57603355,126.8161831,02-2666-2106,https://sdcont.sen.hs.kr/,공학
경기기계공업고등학교,4,특성화고등학교,서울특별시 노원구 공릉로 264 (하계동),37.63224131,127.0749298,02-2289-1600,http://ggmt.sen.hs.kr,공학
광운인공지능고등학교,4,특성화고등학교,"서울특별시 노원구 광운로1길 24 (월계동,광운중학교/광운인공지능고등학교)",37.620734,127.056261,02-918-7761,http://kwangwoon.sen.hs.kr,공학
단국대학교부속소프트웨어고등학교,4,특성화고등학교,서울특별시 강남구 도곡로64길 21 (대치동 1013),37.49561668,127.0577673,02-2116-0115,http://dankook.sen.hs.kr,남
덕일전자공업고등학교,4,특성화고등학교,서울특별시 구로구 서해안로21길 5-12 (오류동),37.490578,126.8371543,02-2613-2762,http://di.sen.hs.kr,공학
서울디자인고등학교,4,특성화고등학교,"서울특별시 마포구 백범로 139 , 서울디자인고등학교 (염리동)",37.546691,126.947828,02-715-2261,http://seodi.sen.hs.kr,공학
동양고등학교,4,일반고등학교,"서울특별시 강서구 허준로 50 (가양동,동양고등학교)",37.56902103,126.8470796,02-2657-0800,http://dongyang.sen.hs.kr,남
서울방송고등학교,4,특성화고등학교,서울특별시 성동구 동호로5길 131 (옥수동),37.54777313,127.0110355,02-3399-0500,https://seb.sen.hs.kr,공학
상일미디어고등학교,4,특성화고등학교,"서울특별시 강동구 천호대로219길 61 , 상일미디어고등학교 (상일동)",37.5484571,127.1692014,02-428-0733,http://sangilmedia.sen.hs.kr,공학
미래산업과학고등학교,4,특성화고등학교,서울특별시 노원구 덕릉로82길 54 (중계동),37.6587784,127.0784425,02-933-7671,http://mist.sen.hs.kr,공학
서울공업고등학교,4,특성화고등학교,"서울특별시 동작구 대방동1길 46 , 서울공업고등학교 (대방동)",37.50190153,126.9223643,02-2082-1810,http://seoul-th.sen.hs.kr,공학
서울디지텍고등학교,4,특성화고등학교,서울특별시 용산구 회나무로12길 27 (이태원동),37.5389687,126.9906177,02-798-3641,http://www.sdh.hs.kr,공학
서울도시과학기술고등학교,4,특수목적고등학교,"서울특별시 성북구 종암로 196 (하월곡동,서울도시과학기술고등학교)",37.60781127,127.0330426,02-940-2500,http://sust.sen.hs.kr,공학
성동공업고등학교,4,특성화고등학교,서울특별시 중구 다산로 290 (흥인동),37.56936387,127.0172825,070-8685-7600,http://sdth.sen.hs.kr,공학
서울인공지능고등학교,4,특성화고등학교,서울특별시 송파구 양산로 21 (거여동),37.491476,127.142528,02-6711-0508,https://seoulai.sen.hs.kr,공학
수도전기공업고등학교,4,특수목적고등학교,"서울특별시 강남구 개포로 410 , 수도전기공업고등학교 (개포동)",37.48493808,127.0644798,02-524-9800,https://sudo.sen.hs.kr/,공학
신진과학기술고등학교,4,특성화고등학교,"서울특별시 은평구 은평로6길 16 (응암동,학교법인신진학원)",37.59871321,126.9188349,02-385-3451,http://shinjin.sen.hs.kr,공학
영등포공업고등학교,4,특성화고등학교,서울특별시 강서구 허준로5길 15 (가양동),37.56983571,126.8500301,02-2659-2981,https://younggong.sen.hs.kr,남
용산철도고등학교,4,특성화고등학교,"서울특별시 용산구 서빙고로 24 (한강로3가, 용산철도고등학교)",37.52434312,126.9673563,02-6905-7777,http://yongsan-th.sen.hs.kr,공학
유한공업고등학교,4,특성화고등학교,서울특별시 구로구 경인로 8 (항동),37.488282,126.823964,02-2610-0993,http://yuhan.sen.hs.kr,공학
서울아이티고등학교,4,특성화고등학교,"서울특별시 노원구 섬밭로 299 (중계동,서울아이티고등학교)",37.64241889,127.0624493,02-948-1901,http://seoulit.sen.hs.kr,공학
인덕과학기술고등학교,4,특성화고등학교,"서울특별시 노원구 초안산로 12 , 인덕과학기술고등학교 (월계동, 인덕대학교,인덕공업고등학교)",37.631885,127.055742,02-902-2060,http://induk.sen.hs.kr,공학
한양공업고등학교,4,특성화고등학교,서울특별시 중구 을지로 299 (신당동),37.565319,127.011933,02-2238-5181,http://hanyang.sen.hs.kr,남
서울반도체고등학교,4,특성화고등학교,"서울특별시 동대문구 겸재로 21 , 서울반도체고등학교 (휘경동)",37.58522006,127.069729,02-2230-9885,https://ssc.sen.hs.kr/,공학
경기상업고등학교,4,특성화고등학교,서울특별시 종로구 자하문로 136 (청운동),37.58925,126.9697,02-737-6490,http://ggc.sen.hs.kr,공학
서울의료보건고등학교,4,특성화고등학교,서울특별시 중구 만리재로37길 30 (만리동1가),37.55729791,126.9667217,02-392-7777,http://smh.sen.hs.kr,녀
서울동구고등학교,4,특성화고등학교,"서울특별시 성북구 성북로8길 71 , 서울동구고등학교 (성북동)",37.5931322,127.0067429,02-762-1301,donggoo.sen.hs.kr,공학
서울컨벤션고등학교,4,특성화고등학교,"서울특별시 강동구 동남로 964 , 서울컨벤션고등학교 (고덕동)",37.559207,127.158087,02-3427-7400,http://seoul-chs.sen.hs.kr,공학
서울여자상업고등학교,4,특성화고등학교,"서울특별시 관악구 관악로 85 (봉천동,서울여자상업고등학교)",37.472732,126.950557,02-873-3613,http://sys.sen.hs.kr,녀
선일빅데이터고등학교,4,특성화고등학교,"서울특별시 은평구 갈현로29길 27 , 선일빅데이터고등학교 (갈현동)",37.620336,126.912002,02-355-5648,https://bigdata.sen.hs.kr/,녀
성덕고등학교,4,일반고등학교,서울특별시 강동구 구천면로 396 (천호동),37.5495007,127.1425564,02-475-4620,http://ssd.hs.kr,공학
서울신정고등학교,4,특성화고등학교,"서울특별시 강서구 등촌로13아길 20 (화곡동, 서울신정고등학교)",37.538583,126.856999,02-2644-3543,http://shinjeong.sen.hs.kr,녀
영락의료과학고등학교,4,특성화고등학교,"서울특별시 관악구 청룡16길 25 (봉천동, 서울영락고등학교, 영락의료과학고등학교)",37.476564,126.944783,02-884-1004,http://youngnak-c.sen.hs.kr,공학
일신여자상업고등학교,4,특성화고등학교,"서울특별시 송파구 송파대로38길 8 (송파동,일신여자상업고등학교)",37.50197244,127.1145266,02-2140-8231,http://ilshin.sen.hs.kr,녀
서울정화고등학교,4,특성화고등학교,서울특별시 동대문구 홍릉로15길 50 (제기동)정화여자상업고등학교,37.58578854,127.0410307,02-960-1495,http://jeonghwa.sen.hs.kr,녀
해성국제컨벤션고등학교,4,특성화고등학교,"서울특별시 동대문구 전농로20길 31 , 해성국제컨벤션고등학교 (전농동)",37.581757,127.057237,070-8786-1300,http://haesung.sen.hs.kr,녀
홍익디자인고등학교,4,특성화고등학교,서울특별시 마포구 성미산로 111 (연남동),37.562686,126.91972,02-3140-1256,http://hid.sen.hs.kr,녀
선정국제관광고등학교,4,특성화고등학교,"서울특별시 은평구 서오릉로20길 19 , 선정국제관광고등학교 (갈현동)",37.618819,126.908452,02-3156-1600,http://sjt.sen.hs.kr,공학
성동글로벌경영고등학교,4,특성화고등학교,"서울특별시 중구 퇴계로 375 (신당동, 성동글로벌경영고등학교)",37.56585408,127.0135238,02-2252-1932,http://sdglobal.sen.hs.kr,녀
세그루패션디자인고등학교,4,특성화고등학교,"서울특별시 도봉구 시루봉로 53 , 세그루패션디자인고등학교 (쌍문동)",37.655556,127.026449,02-993-0114,http://sfd.sen.hs.kr,녀
영신간호비즈니스고등학교,4,특성화고등학교,"서울특별시 노원구 중계로16나길 13 , 영신간호비즈니스고등학교 (중계동)",37.652487,127.082775,02-951-5772,http://youngshin.sen.hs.kr,녀
예일디자인고등학교,4,특성화고등학교,"서울특별시 은평구 연서로 117 , 예일디자인고등학교 (구산동)",37.609594,126.915797,02-380-0865,http://yaledesign.sen.hs.kr,녀
덕원예술고등학교,4,특수목적고등학교,"서울특별시 강서구 강서로45길 91-44 , 덕원예술고등학교 (내발산동)",37.549372,126.828448,02-2660-7911,http://dwarts.sen.hs.kr,공학
서울예술고등학교,4,특수목적고등학교,"서울특별시 종로구 평창문화로 70 , 서울예술고등학교 (평창동)",37.60575727,126.9678915,02-2287-0500,http://yego.or.kr,공학
선화예술고등학교,4,특수목적고등학교,서울특별시 광진구 천호대로 664 (능동),37.549994,127.087558,02-2204-1300,http://www.sunhwa.org,공학
경복비즈니스고등학교,4,특성화고등학교,서울특별시 강서구 화곡로 379 (등촌동),37.55810444,126.8526522,02-3661-3425,http://kbb.sen.hs.kr,녀
고명외식고등학교,4,특성화고등학교,서울특별시 성북구 북악산로 870 (돈암동),37.59732,127.02019,02-928-8366,http://komyung.sen.hs.kr,공학
서울관광고등학교,4,특성화고등학교,"서울특별시 관악구 은천로15길 25 (봉천동,서울관광고등학교)",37.488222,126.943542,02-886-9165,http://seoul-tour.sen.hs.kr,공학
광신방송예술고등학교,4,특성화고등학교,"서울특별시 관악구 광신길 141 (신림동, 광신방송예술고등학교)",37.465719,126.924699,02-881-8612,http://ksmedia.sen.hs.kr,공학
예림디자인고등학교,4,특성화고등학교,"서울특별시 구로구 오리로21길 2 (궁동,예림디자인고등학교)",37.4996945,126.8282053,02-2617-2333,http://yerim.sen.hs.kr,녀
대경생활과학고등학교,4,특성화고등학교,서울특별시 중구 매봉18길 111 (신당동),37.55669583,127.0175331,02-2235-5155,http://daekyeong.sen.hs.kr,공학
대동세무고등학교,4,특성화고등학교,서울특별시 종로구 계동길 84-10 (계동),37.58158201,126.9879496,02-763-1631,http://daedong.sen.hs.kr,공학
대일관광고등학교,4,특성화고등학교,"서울특별시 양천구 신정이펜1로 11 , 대일관광고등학교 (신정동, 대일관광고등학교)",37.51140961,126.8348952,02-6112-1703,http://daeil-tour.sen.hs.kr,녀
덕수고등학교,4,일반고등학교,"서울특별시 송파구 위례북로 10 (거여동, 덕수고등학교)",37.485367,127.146854,02-6952-2801,https://duksoo.sen.hs.kr/,공학
서울문화고등학교,4,특성화고등학교,"서울특별시 도봉구 마들로 598 , 서울문화고등학교 (방학동)",37.66413242,127.0472847,02-955-9100,http://seoulculture.sen.hs.kr,공학
동명생활경영고등학교,4,특성화고등학교,서울특별시 은평구 통일로 793 (대조동),37.61421,126.923068,02-383-2628,http://dmgcab.sen.hs.kr/,녀
미림마이스터고등학교,4,특수목적고등학교,서울특별시 관악구 호암로 546 미림마이스터고등학교,37.466336,126.932907,02-872-4071,https://www.e-mirim.hs.kr,공학
보인고등학교,4,자율고등학교,"서울특별시 송파구 오금로49길 18 , 보인고등학교 (오금동)",37.496983,127.138291,02-2043-6021,http://www.boin.hs.kr,남
서서울생활과학고등학교,4,특성화고등학교,"서울특별시 구로구 오리로 1355-10 , 서서울생활과학고등학교 (궁동)",37.50344,126.827752,02-2613-5272,http://ssls.sen.hs.kr,공학
서울금융고등학교,4,특성화고등학교,"서울특별시 양천구 가로공원로61길 19 , 서울금융고등학교 (신월동)",37.537615,126.825664,02-2694-3710,http://seoulfc.sen.hs.kr,공학
서일문화예술고등학교,4,특성화고등학교,서울특별시 종로구 지봉로17길 49 (창신동),37.5793799,127.0127927,02-763-5863,http://seoil.sen.hs.kr,공학
성암국제무역고등학교,4,특성화고등학교,"서울특별시 강북구 도봉로29길 52 (미아동, 성암국제무역고등학교)",37.620895,127.024682,02-2179-1888,http://seongam.sen.hs.kr,녀
서울백영고등학교,4,특성화고등학교,서울특별시 강서구 방화대로34길 13 (방화동),37.56921616,126.817042,02-2665-5900,http://sby.sen.hs.kr,공학
송곡관광고등학교,4,특성화고등학교,서울특별시 중랑구 양원역로 67 (망우동),37.606334,127.10544,02-432-1837,http://sgi.sen.hs.kr,공학
염광메디텍고등학교,4,특성화고등학교,"서울특별시 노원구 월계로45가길 9 , 염광메디텍고등학교 (월계동)",37.629901,127.048562,02-994-3105,http://ykm.sen.hs.kr,공학
이화여자대학교병설미디어고등학교,4,특성화고등학교,"서울특별시 중랑구 망우로73길 56 , 02061 (망우동)",37.6031306,127.1053319,02-2209-0146,https://ewhamedia.sen.hs.kr,녀
서울동산고등학교,4,특성화고등학교,서울특별시 노원구 공릉로 257 (공릉동),37.6302021,127.07506,02-971-0903,http://seouldongsan.sen.hs.kr,공학
화곡보건경영고등학교,4,특성화고등학교,"서울특별시 강서구 강서로45길 70 (내발산동, 화곡보건경영고등학교)",37.549041,126.832793,070-8644-6300,http://hwagok-gii.sen.hs.kr,녀
리라아트고등학교,4,특성화고등학교,"서울특별시 중구 소파로2길 , 24 (예장동,리라아트고등학교)",37.5571299,126.9882245,02-775-6541,http://lila.sen.hs.kr,공학
서울웹툰애니메이션고등학교,4,특성화고등학교,서울특별시 서초구 과천대로 852-23 (방배동),37.46972083,126.988361,02-6011-4100,https://swas.sen.hs.kr,공학
선린인터넷고등학교,4,특성화고등학교,서울특별시 용산구 원효로97길 33-4 (청파동3가),37.54297557,126.9664882,02-713-6211,http://sunrint.sen.hs.kr,공학
세명컴퓨터고등학교,4,특성화고등학교,"서울특별시 은평구 통일로92가길 33 , 세명컴퓨터고등학교 (불광동)",37.62776307,126.92319,02-354-1323,http://smc.sen.hs.kr,공학
한세사이버보안고등학교,4,특성화고등학교,서울특별시 마포구 마포대로11길 44-80 (아현동),37.552009,126.952001,02-362-0130,http://hansei.sen.hs.kr,공학
누원고등학교,4,일반고등학교,"서울특별시 도봉구 마들로 849 , 누원고등학교 (도봉동)",37.68556743,127.049933,02-3492-7595,http://noowon.sen.hs.kr,공학
방산고등학교,4,일반고등학교,서울특별시 송파구 오금로27길 18 (방이동),37.5083997,127.120472,02-418-2602,http://bangsan.sen.hs.kr,공학
신현고등학교,4,일반고등학교,"서울특별시 중랑구 봉화산로 174 , 신현고등학교 (상봉동)",37.60524932,127.09295,02-3422-2713,http://shinhyeon.sen.hs.kr,공학
자운고등학교,4,일반고등학교,서울특별시 도봉구 노해로69길 150 (창동),37.65904587,127.0506904,02-998-2929,http://jawoon.sen.hs.kr,공학
등촌고등학교,4,일반고등학교,"서울특별시 강서구 공항대로39길 115 , 등촌고등학교 (등촌동)",37.56294567,126.8450457,02-3665-6045,http://dch.sen.hs.kr,공학
경일고등학교,4,일반고등학교,"서울특별시 성동구 성수일로 27 , 경일고등학교 (성수동1가)",37.54382838,127.0478694,02-463-3520,http://kyungil.sen.hs.kr,공학
선유고등학교,4,일반고등학교,"서울특별시 영등포구 선유로 227 , 선유고등학교 (양평동4가)",37.5339205,126.8948722,02-2069-0036,http://seonyoo.sen.hs.kr,공학
월계고등학교,4,일반고등학교,"서울특별시 노원구 초안산로5길 66 (월계동,월계고등학교)",37.63173247,127.0487142,02-908-0062,http://wg.sen.hs.kr,공학
불암고등학교,4,일반고등학교,서울특별시 노원구 중계로 155 (중계동),37.64915826,127.0803044,02-936-7500,http://buram.sen.hs.kr,공학
세현고등학교,4,일반고등학교,"서울특별시 강서구 허준로 227 , 세현고등학교 (가양동)",37.560416,126.863464,02-3663-1495,http://sehyun.sen.hs.kr,공학
신서고등학교,4,일반고등학교,"서울특별시 양천구 은행정로 42 , 신서고등학교 (신정동)",37.5239633,126.8601669,02-2690-0400,http://sinseo.sen.hs.kr,공학
효문고등학교,4,일반고등학교,"서울특별시 도봉구 우이천로 432 (쌍문동,효문중 고등학교)",37.65269799,127.0183988,02-992-0778,http://hyomun.sen.hs.kr,공학
원묵고등학교,4,일반고등학교,"서울특별시 중랑구 숙선옹주로 82 , 원묵고등학교 (묵동)",37.615506,127.086204,02-3422-3573,http://wonmook.sen.hs.kr,공학
상암고등학교,4,일반고등학교,서울특별시 마포구 월드컵북로 445 (상암동),37.58134123,126.8833956,02-373-0041,http://sangam.sen.hs.kr,공학
서울국제고등학교,4,특수목적고등학교,"서울특별시 종로구 성균관로13길 40 , 서울국제고 (명륜1가)",37.59154,126.996,02-743-9385,http://sghs.sen.hs.kr,공학
문정고등학교,4,일반고등학교,"서울특별시 송파구 송이로34길 62 (문정동,문정고등학교)",37.48517967,127.1266941,02-406-0061,http://mj.sen.hs.kr,공학
세종과학고등학교,4,특수목적고등학교,서울특별시 구로구 오리로21길 79 (궁동),37.497155,126.82758,02-2060-4133,http://sjsh.sen.hs.kr,공학
구현고등학교,4,일반고등학교,서울특별시 구로구 경인로53가길 17 (구로동),37.50228196,126.874417,02-2628-8916,http://guhyun.sen.hs.kr,공학
삼각산고등학교,4,일반고등학교,"서울특별시 강북구 삼양로19길 40 (미아동,삼각산고등학교)",37.61628709,127.0201069,02-980-2290,http://samgaksan.sen.hs.kr,공학
신도림고등학교,4,일반고등학교,"서울특별시 구로구 경인로67길 159 (신도림동,신도림고등학교)",37.5137691,126.8822616,02-2068-7979,https://shindorim.sen.hs.kr/,공학
강일고등학교,4,일반고등학교,서울특별시 강동구 아리수로98길 40 (강일동),37.56382873,127.1779057,02-428-6200,http://gang-il.sen.hs.kr,공학
성수고등학교,4,일반고등학교,"서울특별시 성동구 서울숲길 18 , 성수고등학교 (성수동1가)",37.54734217,127.038253,02-461-2276,http://seongsu.sen.hs.kr,공학
문현고등학교,4,일반고등학교,서울특별시 송파구 충민로 115 (장지동),37.481244,127.128992,02-6951-8702,http://munhyeon.sen.hs.kr,공학
진관고등학교,4,일반고등학교,서울특별시 은평구 진관4로 26 (진관동),37.64361,126.92443,02-358-0783,http://jingwan.sen.hs.kr,공학
구암고등학교,4,일반고등학교,"서울특별시 관악구 성현로 57 (봉천동,구암고등학교)",37.492457,126.950056,02-879-9823,https://guahm.sen.hs.kr,공학
신도고등학교,4,일반고등학교,서울특별시 은평구 통일로 961 (진관동),37.629382,126.918451,02-3157-0021,http://sindo.sen.hs.kr,공학
해성여자고등학교,4,일반고등학교,"서울특별시 동대문구 전농로20길 31 (전농동,해성여자고등학교)",37.580759,127.057155,02-6077-4200,http://haesung-g.sen.hs.kr,녀
솔샘고등학교,4,일반고등학교,"서울특별시 강북구 인수봉로 39 , 솔샘고등학교",37.62402,127.012109,02-982-6104,http://solsaem.sen.hs.kr,공학
선사고등학교,4,일반고등학교,"서울특별시 강동구 고덕로25길 17 , 선사고등학교 (암사동)",37.556548,127.135694,02-426-1749,http://sunsa.sen.hs.kr,공학
잠일고등학교,4,일반고등학교,서울특별시 송파구 백제고분로 21 (잠실동),37.51443,127.082425,02-2141-2000,http://jamil.sen.hs.kr,공학
휘봉고등학교,4,일반고등학교,서울특별시 동대문구 한천로 290 (휘경동),37.5865082,127.0689973,02-2116-7211,http://hwibong.sen.hs.kr,공학
수명고등학교,4,일반고등학교,"서울특별시 강서구 수명로2길 15 , 수명고등학교 (내발산동)",37.54975914,126.8247531,02-2660-5500,http://sumyeong.sen.hs.kr,공학
은평고등학교,4,일반고등학교,"서울특별시 은평구 갈현로15길 47 (구산동, 은평고등학교)",37.609211,126.906042,02-383-0872,http://ep.sen.hs.kr,공학
서울공연예술고등학교,4,특수목적고등학교,"서울특별시 구로구 오리로22나길 16-26 , 서울공연예술고등학교 (궁동)",37.50008507,126.8321523,02-3281-9760,http://sopa.hs.kr,공학
가재울고등학교,4,일반고등학교,서울특별시 서대문구 수색로 100-35 (북가좌동),37.574297,126.909499,02-6351-0500,http://gajaeul.sen.hs.kr,공학
하나고등학교,4,자율고등학교,"서울특별시 은평구 연서로 535 , 하나고등학교 (진관동)",37.64163651,126.9369305,02-6913-1111,http://www.hana.hs.kr,공학
금호고등학교,4,일반고등학교,서울특별시 성동구 금호로 118 (금호동1가),37.55325,127.02362,02-2022-0800,http://geumho.sen.hs.kr,공학
도선고등학교,4,일반고등학교,서울특별시 성동구 마장로 156 (하왕십리동),37.567131,127.026809,02-2292-8175,http://dosun.sen.hs.kr,공학
서울대학교사범대학부설중학교,3,중학교,서울특별시 성북구 월곡로 36 (종암동),37.596201,127.039164,02-943-5812,http://snums.sen.ms.kr,남
서울대학교사범대학부설여자중학교,3,중학교,"서울특별시 종로구 대학로 64 , 서울대학교사범대학부설여자중학교 (이화동)",37.57792813,127.0038989,02-762-5252,http://snu.sen.ms.kr,녀
개원중학교,3,중학교,"서울특별시 강남구 영동대로 101 , 개원중학교 (개포동,개원중학교)",37.49164119,127.0714149,02-3411-8321,http://gaewon.sen.ms.kr,공학
개포중학교,3,중학교,"서울특별시 강남구 선릉로 9 (개포동,개포중학교)",37.4806642,127.0617435,02-2138-1631,https://gaepo.sen.ms.kr,공학
경원중학교,3,중학교,"서울특별시 서초구 신반포로33길 39 (잠원동,경원중학교)",37.510997,127.008879,02-593-6578,http://gyeongwon.sen.ms.kr,공학
구룡중학교,3,중학교,"서울특별시 강남구 선릉로 103 (개포동,구룡중학교)",37.4861533,127.0561228,02-577-3708,http://gury.sen.ms.kr/,공학
압구정중학교,3,중학교,"서울특별시 강남구 압구정로 225 , 압구정중학교 (압구정동,압구정중학교)",37.53023918,127.0329857,02-543-1393,http://apgujeong.sen.ms.kr,공학
단국대학교사범대학부속중학교,3,중학교,서울특별시 강남구 도곡로64길 21 (대치동),37.4953357,127.0564936,02-2191-2600,http://dankook.sen.ms.kr,남
대명중학교,3,중학교,"서울특별시 강남구 역삼로87길 26 (대치동, 대명중학교)",37.50605588,127.0610643,02-563-3701,http://daemyeong.sen.ms.kr,공학
대왕중학교,3,중학교,"서울특별시 강남구 광평로20길 7 (수서동, 대왕중학교)",37.48345655,127.0873402,02-2226-2646,http://daewang.sen.ms.kr,공학
대청중학교,3,중학교,"서울특별시 강남구 양재천로 321 (대치동, 대청중학교)",37.4904302,127.0583513,02-553-9830,http://daecheong.sen.ms.kr,공학
대치중학교,3,중학교,"서울특별시 강남구 남부순환로378길 39 (도곡동,대치중학교)",37.4845654,127.0472825,02-572-9781,http://daechi.sen.ms.kr,공학
도곡중학교,3,중학교,"서울특별시 강남구 언주로57길 31 (도곡동,도곡중학교)",37.4923472,127.0450882,02-3462-5951,http://dogok.sen.ms.kr,공학
동덕여자중학교,3,중학교,"서울특별시 서초구 효령로2길 123-5 (방배동,동덕여자중고등학교)",37.4759176,126.9927527,02-586-5417,http://dongduk.sen.ms.kr,녀
반포중학교,3,중학교,"서울특별시 서초구 신반포로 67 (반포동,반포중학교)",37.5030706,126.9918514,02-599-2304,http://banpo.sen.ms.kr,남
방배중학교,3,중학교,"서울특별시 서초구 동광로 144 (반포동,방배중학교)",37.494454,126.998434,02-532-1342,http://bangbae.sen.ms.kr,공학
봉은중학교,3,중학교,서울특별시 강남구 영동대로128길 59 (삼성동),37.5189411,127.0621196,02-547-5628,http://bongeun.sen.ms.kr,공학
서문여자중학교,3,중학교,서울특별시 서초구 동광로12길 84 (방배동),37.48877,126.984628,02-3015-3600,https://suhmoon.sen.ms.kr/,녀
서운중학교,3,중학교,"서울특별시 서초구 서운로 115 (서초동,서운중학교)",37.493734,127.024691,02-3473-2701,http://seoun.sen.ms.kr,공학
서일중학교,3,중학교,"서울특별시 서초구 서운로21길 2 (서초동,서일중학교)",37.49852977,127.0232191,02-3482-9663,http://seoil.sen.ms.kr,공학
서초중학교,3,중학교,"서울특별시 서초구 반포대로13길 48 (서초동,서초중학교)",37.48553922,127.0085208,02-583-0105,http://seocho.sen.ms.kr,공학
세화여자중학교,3,중학교,"서울특별시 서초구 신반포로 56-7 , 세화여자중학교 (반포동,강당)",37.5019914,126.9942648,02-594-4887,http://sehwa.sen.ms.kr,녀
수서중학교,3,중학교,"서울특별시 강남구 광평로59길 57 (수서동,수서중학교)",37.49120395,127.1023793,02-451-7092,http://suseo.sen.ms.kr,공학
숙명여자중학교,3,중학교,"서울특별시 강남구 남부순환로 2807 , 숙명여자중학교",37.49147446,127.0526124,02-6480-5300,http://sookmyung.sen.ms.kr,녀
신구중학교,3,중학교,"서울특별시 강남구 압구정로36길 17 (신사동,신구중학교)",37.527283,127.03216,02-548-5038,http://shingu.sen.ms.kr,공학
신동중학교,3,중학교,"서울특별시 서초구 나루터로 27 , 신동중학교 (잠원동,신동중학교)",37.516699,127.013192,02-594-6456,http://shindong.sen.ms.kr,공학
신반포중학교,3,중학교,"서울특별시 서초구 신반포로19길 26 , 신반포중학교 (반포동,신반포중학교)",37.505955,126.995829,02-537-6731,shinbanpo.sen.ms.kr,공학
신사중학교,3,중학교,"서울특별시 강남구 압구정로 123 (압구정동,신사중학교)",37.52469892,127.0211909,02-541-1062,http://sinsa.sen.ms.kr,공학
언남중학교,3,중학교,"서울특별시 서초구 동산로 55 (양재동,언남중학교)",37.4724059,127.0444116,02-577-3038,http://eonnam.sen.ms.kr,공학
언북중학교,3,중학교,"서울특별시 강남구 도산대로38길 27 (논현동,언북중학교)",37.51942711,127.0331257,02-544-1311,http://eonbuk.sen.ms.kr,공학
언주중학교,3,중학교,"서울특별시 강남구 선릉로116길 57 , 언주중학교",37.5144,127.0465,02-514-7174,http://eonju.sen.ms.kr,공학
역삼중학교,3,중학교,"서울특별시 강남구 도곡로43길 10 (역삼동,역삼중학교)",37.49593424,127.0488928,02-558-1501,http://yeoksam.sen.ms.kr,공학
영동중학교,3,중학교,"서울특별시 서초구 성촌길 14 (우면동,영동중학교)",37.46593086,127.0252075,02-3474-7386,http://youngdong.sen.ms.kr,공학
원촌중학교,3,중학교,"서울특별시 서초구 사평대로45길 10 (반포동,원촌중학교)",37.505904,127.0135789,02-3482-6053,http://wonchon.sen.ms.kr,공학
은성중학교,3,중학교,"서울특별시 강남구 남부순환로359길 36 (도곡동,은광여자고등학교)",37.487704,127.036142,02-3462-2003,http://eunseong.sen.ms.kr,공학
이수중학교,3,중학교,"서울특별시 서초구 방배중앙로3길 32 (방배동,이수중학교)",37.4809574,126.9903022,02-521-4651,http://isu.sen.ms.kr,남
중동중학교,3,중학교,서울특별시 강남구 일원로8길 37 중동중학교,37.488319,127.0786207,070-7092-9300,https://joongdong.sen.ms.kr/,남
진선여자중학교,3,중학교,"서울특별시 강남구 선릉로85길 27 (역삼동, 진선여자중학교)",37.50231001,127.0482862,02-2185-4300,http://jinseon.sen.ms.kr,녀
청담중학교,3,중학교,"서울특별시 강남구 압구정로61길 36 (청담동,청담중학교)",37.52877545,127.0453528,02-511-5151,http://cheongdam.sen.ms.kr,공학
휘문중학교,3,중학교,서울특별시 강남구 역삼로 541 (대치동),37.504951,127.0620662,02-500-9700,http://whimoon.sen.ms.kr,남
가락중학교,3,중학교,"서울특별시 송파구 송이로 45 (송파동,가락중학교)",37.50248724,127.1187525,02-2143-3100,http://karak.sen.ms.kr,공학
가원중학교,3,중학교,"서울특별시 송파구 중대로10길 40-18 (가락동,가원중학교)",37.4910003,127.1231715,02-409-2179,http://gawon.sen.ms.kr,공학
강일중학교,3,중학교,서울특별시 강동구 고덕로27길 12 (암사동414-17),37.5551525,127.1382791,02-441-4651,http://kangil.sen.ms.kr,공학
거원중학교,3,중학교,"서울특별시 송파구 양산로2길 30 (거여동,거원중학교)",37.4874893,127.1465347,02-405-4205,http://geowon.sen.ms.kr,공학
고덕중학교,3,중학교,서울특별시 강동구 동남로82길 94 (고덕동),37.56036706,127.1616448,02-2045-6000,http://godeok.sen.ms.kr,공학
동북중학교,3,중학교,서울특별시 강동구 강동대로 305 (둔촌동),37.520249,127.140634,02-477-2280,http://dongbuk.sen.ms.kr,남
동신중학교,3,중학교,"서울특별시 강동구 진황도로 72 (천호동, 동신중학교)",37.53676988,127.1343666,02-3784-3938,http://dongshin.sen.ms.kr,공학
둔촌중학교,3,중학교,서울특별시 강동구 진황도로61길 25-30 (둔촌동),37.530632,127.146493,02-489-7100,http://doonchon.sen.ms.kr,공학
명일중학교,3,중학교,"서울특별시 강동구 양재대로156길 57 (고덕동,명일중학교)",37.557385,127.147981,02-429-5641,http://myungil.sen.ms.kr,공학
문정중학교,3,중학교,"서울특별시 송파구 문정로 73 (문정동, 문정중학교)",37.48848095,127.1300195,02-448-6348,http://munjeong.sen.ms.kr,공학
방산중학교,3,중학교,"서울특별시 송파구 오금로29길 31 (방이동, 방산중학교)",37.5091513,127.1219039,02-2046-2600,http://bangsan.sen.ms.kr,공학
방이중학교,3,중학교,"서울특별시 송파구 오금로11길 64 (방이동,방이중학교)",37.5150094,127.1132435,02-2152-7111,http://bangi.sen.ms.kr,공학
배명중학교,3,중학교,"서울특별시 송파구 삼학사로 11 (삼전동,배명중고등학교)",37.49905,127.095697,02-414-5474,http://bm.sen.ms.kr,남
배재중학교,3,중학교,"서울특별시 강동구 고덕로 227 (고덕동, 배재중학교)",37.55505902,127.1502481,02-429-1885,http://paichai.sen.ms.kr,남
보성중학교,3,중학교,"서울특별시 송파구 양재대로 1278 (방이동,보성중고등학교)",37.520206,127.134853,02-2152-2513,http://posung.sen.ms.kr/,남
보인중학교,3,중학교,"서울특별시 송파구 오금로49길 18 (오금동, 보인중고등학교)",37.49814,127.138032,02-449-6017,http://boin.sen.ms.kr,남
상일중학교,3,중학교,"서울특별시 강동구 천호대로219길 61 (상일동, 상일중학교)",37.54795369,127.1702183,02-428-0735,http://sangil.sen.ms.kr,공학
석촌중학교,3,중학교,서울특별시 송파구 송이로15길 13 (가락동),37.501203,127.120763,02-448-4031,http://seokchon.sen.ms.kr,공학
성내중학교,3,중학교,"서울특별시 강동구 성안로7길 36 (성내동,성내중학교)",37.52906317,127.129117,02-480-1600,http://seongnae.sen.ms.kr,공학
성덕여자중학교,3,중학교,"서울특별시 강동구 구천면로 396 (천호동, 성덕여자중학교)",37.549597,127.141637,02-475-4626,http://sd.sen.ms.kr,녀
세륜중학교,3,중학교,"서울특별시 송파구 양재대로72길 41 (오금동,세륜중학교)",37.508594,127.131492,02-411-1000,http://seryun.sen.ms.kr,공학
송파중학교,3,중학교,"서울특별시 송파구 동남로 203 (가락동, 송파중학교)",37.49592336,127.1299329,02-402-0118,http://songpa.sen.ms.kr,공학
신명중학교,3,중학교,서울특별시 강동구 명일로24길 25 (길동),37.54182637,127.1492982,02-6969-6400,http://sinmyung.sen.ms.kr,공학
신암중학교,3,중학교,"서울특별시 강동구 고덕로 65 , 신암중학교 (암사동)",37.55636925,127.1336141,02-441-6751,http://sinam.sen.ms.kr,공학
신천중학교,3,중학교,"서울특별시 송파구 백제고분로 11 , 신천중학교 (잠실동)",37.51643649,127.0777096,02-422-3946,scm.sen.ms.kr,공학
아주중학교,3,중학교,"서울특별시 송파구 올림픽로4길 69 , 아주중학교 (잠실동)",37.50522875,127.0765489,02-415-1697,http://aju.sen.ms.kr,공학
영파여자중학교,3,중학교,서울특별시 송파구 올림픽로 565 (풍납동),37.532854,127.120354,02-488-4074,http://youngpa.sen.ms.kr,녀
오금중학교,3,중학교,"서울특별시 송파구 오금로35길 20 (오금동,오금중학교)",37.50526983,127.1288,02-402-4778,http://ogeum.sen.ms.kr,공학
오륜중학교,3,중학교,"서울특별시 송파구 양재대로 1242 (방이동,오륜중학교)",37.5161458,127.1388726,02-3434-4100,http://oryun.sen.ms.kr,공학
오주중학교,3,중학교,"서울특별시 송파구 동남로 281 (오금동, 오주중학교)",37.50150606,127.1362666,02-3434-7500,http://oju.sen.ms.kr,공학
잠실여자중학교,3,중학교,"서울특별시 송파구 송파대로38길 8 (송파동,잠실여자중학교)",37.50088,127.113224,02-2140-8131,http://jamsilg.sen.ms.kr,녀
잠신중학교,3,중학교,"서울특별시 송파구 잠실로 12 , 잠신중학교 (잠실동)",37.51616992,127.0878036,02-2251-1234,http://jamsin.sen.ms.kr,공학
잠실중학교,3,중학교,서울특별시 송파구 올림픽로35길 130 (신천동),37.5178192,127.0986647,02-420-8051,http://jamsil.sen.ms.kr,공학
정신여자중학교,3,중학교,"서울특별시 송파구 올림픽로4길 16 , 정신여자중학교 (잠실동)",37.50945438,127.0738478,02-423-4123,http://chungshin.sen.ms.kr,녀
천일중학교,3,중학교,"서울특별시 강동구 천중로 57 (천호동,천일중학교)",37.54590987,127.1276387,02-470-3542,http://cheonil.sen.ms.kr,공학
천호중학교,3,중학교,서울특별시 강동구 상암로 153 (천호동),37.54651971,127.1396981,02-470-7075,http://cheonho.sen.ms.kr,공학
풍납중학교,3,중학교,서울특별시 송파구 올림픽로43길 20 (풍납동),37.5255375,127.1159443,02-2225-2000,http://pungnap.sen.ms.kr,공학
풍성중학교,3,중학교,"서울특별시 송파구 강동대로2길 27 (풍납동, 풍성중학교)",37.52543976,127.1128836,02-2224-7700,http://pungsung.sen.ms.kr,공학
한산중학교,3,중학교,서울특별시 강동구 풍성로 251 (둔촌동),37.52890265,127.1403033,02-474-4903,http://hansan.sen.ms.kr,공학
한영중학교,3,중학교,"서울특별시 강동구 동남로 832 , 한영중학교 (상일동)",37.549136,127.157387,02-6954-1403,https://hanyoung.sen.ms.kr,공학
강신중학교,3,중학교,"서울특별시 양천구 남부순환로 604 (신월동,강신중학교)",37.51513662,126.8381588,02-2694-9623,http://kangsin.sen.ms.kr,공학
경서중학교,3,중학교,서울특별시 강서구 양천로59길 31 (가양동),37.56124257,126.8577618,02-2668-0304,http://gyeongseo.sen.ms.kr,공학
공항중학교,3,중학교,"서울특별시 강서구 방화대로 241 (공항동,공항중학교)",37.56217796,126.8149676,02-2662-0471,http://gonghang.sen.ms.kr,공학
금옥중학교,3,중학교,"서울특별시 양천구 신정로 213 , 금옥중학교 (신정동)",37.510293,126.844182,02-2696-1202,geumok.sen.ms.kr,공학
덕원중학교,3,중학교,"서울특별시 강서구 강서로45길 91-44 (내발산동,덕원중학교)",37.550018,126.829446,02-2660-7955,http://deokwon.sen.ms.kr,공학
등명중학교,3,중학교,"서울특별시 강서구 공항대로39길 39 (등촌동,등명중학교)",37.56019353,126.8433039,02-2658-2727,deungmyoung.sen.ms.kr,공학
등원중학교,3,중학교,"서울특별시 강서구 화곡로65길 50 (등촌동,등원중학교)",37.55971781,126.8516802,02-2658-2707,http://deungwon.sen.ms.kr,공학
등촌중학교,3,중학교,"서울특별시 강서구 공항대로 484-12 (등촌동,등촌중학교)",37.55248302,126.8592134,02-2653-0392,http://deungchon.sen.ms.kr,공학
마포중학교,3,중학교,"서울특별시 강서구 화곡로 403 , 마포중학교 (전화 02-3663-2587)",37.560364,126.853059,02-3663-2591,http://mapo.sen.ms.kr,남
명덕여자중학교,3,중학교,서울특별시 강서구 강서로47길 34-10 (내발산동),37.553625,126.834815,02-2664-8813,http://myungduk.sen.ms.kr,녀
목동중학교,3,중학교,"서울특별시 양천구 목동동로 172 (신정동,목동중학교)",37.52095837,126.8714445,02-2643-1103,http://mokdong.sen.ms.kr,공학
목일중학교,3,중학교,"서울특별시 양천구 목동동로8길 70 (신정동,목일중학교)",37.5133739,126.8741821,02-2646-0553,http://mokil.sen.ms.kr,공학
방원중학교,3,중학교,"서울특별시 강서구 금낭화로 268 , 방원중학교 (방화동,방원중학교)",37.575976,126.808714,02-2661-2812,http://bangwon.sen.ms.kr,공학
방화중학교,3,중학교,서울특별시 강서구 개화동로27길 9 (방화동),37.56433498,126.8071071,02-2662-4452,http://banghwa.sen.ms.kr,공학
백석중학교,3,중학교,"서울특별시 강서구 등촌로51나길 35 (등촌동,백석중학교)",37.548487,126.858907,02-2644-2886,baekseok.sen.ms.kr,공학
봉영여자중학교,3,중학교,"서울특별시 양천구 목동동로2길 68 (신정동,봉영여자중학교)",37.50896,126.861331,02-2648-7124,bongyoung.sen.ms.kr,녀
삼정중학교,3,중학교,"서울특별시 강서구 금낭화로 210 (방화동,삼정중학교)",37.581561,126.810702,02-2666-6033,http://samjeong.sen.ms.kr,공학
성재중학교,3,중학교,"서울특별시 강서구 허준로 36 (가양동,성재중학교)",37.56945118,126.8452948,02-2658-9853,http://sungjae.sen.ms.kr,공학
송정중학교,3,중학교,"서울특별시 강서구 남부순환로 121 (공항동,송정중학교)",37.55315762,126.8152434,02-2661-0478,https://songjeong.sen.ms.kr,공학
신남중학교,3,중학교,"서울특별시 양천구 중앙로29길 109 (신월동,신남중학교)",37.52077533,126.8478252,02-2602-7353,http://shinnam.sen.ms.kr,공학
신목중학교,3,중학교,"서울특별시 양천구 목동중앙로 88 (목동,신목중학교)",37.53711,126.87287,02-2648-2142,http://shinmok.sen.ms.kr,공학
신서중학교,3,중학교,"서울특별시 양천구 중앙로 206 (신정동,신서중학교)",37.515908,126.855545,02-2654-8011,http://sinseo.sen.ms.kr,공학
신원중학교,3,중학교,"서울특별시 양천구 가로공원로55길 19 (신월동,신원중학교)",37.536668,126.824311,02-2699-0183,http://shinwon.sen.ms.kr,공학
신월중학교,3,중학교,"서울특별시 양천구 남부순환로29길 25 , 신월중학교 (신월동)",37.541731,126.828491,02-2601-4254,http://sinwol.sen.ms.kr,공학
신정여자중학교,3,중학교,서울특별시 강서구 등촌로13아길 20 신정여자중학교,37.537958,126.856493,02-2644-3549,http://shinjeong.sen.ms.kr,녀
신화중학교,3,중학교,"서울특별시 양천구 남부순환로29길 35 , 신화중학교 (신월동)",37.54082155,126.8298975,02-3219-2900,http://shinhwa.sen.ms.kr,공학
양강중학교,3,중학교,서울특별시 양천구 중앙로 319 (신월동),37.52491143,126.8496223,02-2691-0869,http://yangkang.sen.ms.kr,공학
양동중학교,3,중학교,"서울특별시 양천구 목동중앙북로 49 (목동,양동중학교)",37.5483674,126.8687178,02-2648-3638,http://yangdong.sen.ms.kr,공학
양서중학교,3,중학교,"서울특별시 양천구 남부순환로 380 (신월동,양서중학교)",37.532914,126.829502,02-6273-8106,http://yangseo.sen.ms.kr,공학
양정중학교,3,중학교,"서울특별시 양천구 안양천로 1039 (목동, 양정고등학교)",37.535378,126.886908,02-2649-7077,http://ycsc.sen.ms.kr,남
양천중학교,3,중학교,"서울특별시 양천구 지양로7길 32 (신월동,양천중학교)",37.519725,126.830705,02-2694-2715,http://yangcheon.sen.ms.kr,공학
염창중학교,3,중학교,"서울특별시 강서구 양천로67가길 83 (염창동,염창중학교)",37.5538859,126.8716074,02-3661-9756,http://yumchang.sen.ms.kr,공학
영도중학교,3,중학교,"서울특별시 양천구 목동중앙남로 27 , 영도중학교 (목동,강서고등학교)",37.535944,126.865946,02-2643-0242,http://yeongdo21.sen.ms.kr,남
월촌중학교,3,중학교,"서울특별시 양천구 목동서로 31 (목동,서울월촌중학교)",37.537656,126.882996,02-2648-8570,http://wolchonnet.sen.ms.kr,공학
화곡중학교,3,중학교,"서울특별시 강서구 강서로45길 70 (내발산동,화곡중학교)",37.548164,126.833204,070-8644-6400,http://hwagok.sen.ms.kr,남
화원중학교,3,중학교,"서울특별시 강서구 강서로17나길 86 (화곡동,화원중학교)",37.536971,126.842535,02-811-2000,http://hwawon.sen.ms.kr,공학
가산중학교,3,중학교,서울특별시 금천구 시흥대로115길 48 (독산동),37.46781801,126.8942659,02-804-1777,http://gasan.sen.ms.kr,공학
개봉중학교,3,중학교,서울특별시 구로구 고척로21나길 68 (개봉동),37.50353022,126.8424,02-3660-2400,http://gaebong.sen.ms.kr,공학
개웅중학교,3,중학교,"서울특별시 구로구 개봉로11길 81 , 개웅중학교 (개봉동,개웅중학교)",37.48752519,126.8510722,02-2613-3342,http://kaewoong.sen.ms.kr,공학
고척중학교,3,중학교,"서울특별시 구로구 중앙로3길 20 , 고척중학교 (고척동)",37.5003254,126.8621596,02-6917-7101,http://gocheok.sen.ms.kr,공학
구로중학교,3,중학교,서울특별시 구로구 구로중앙로 48 (구로동),37.494705,126.890895,02-864-4233,http://guro.sen.ms.kr,공학
구일중학교,3,중학교,서울특별시 구로구 구일로 90-133 (구로동),37.49530027,126.8737683,02-2107-9104,http://guil.sen.ms.kr,공학
난곡중학교,3,중학교,서울특별시 금천구 문성로 67 (독산동),37.4780455,126.9107939,02-2283-5200,http://nangok.sen.ms.kr,공학
당산서중학교,3,중학교,"서울특별시 영등포구 당산로41길 12 (당산동5가,당산서중학교)",37.53248539,126.8988269,02-2676-0962,http://dangsanseo.sen.ms.kr,공학
당산중학교,3,중학교,서울특별시 영등포구 버드나루로 160 (당산동),37.53203128,126.9076161,02-2177-9900,http://dangsan.sen.ms.kr,공학
대림중학교,3,중학교,"서울특별시 영등포구 시흥대로185길 6 (대림동,대림중학교)",37.49231851,126.907466,02-845-2171,http://daerim.sen.ms.kr,공학
대영중학교,3,중학교,"서울특별시 영등포구 도림로80가길 14 (신길동,대영중학교)",37.50343874,126.9052085,02-848-7781,http://daeyoung.sen.ms.kr,공학
동일중학교,3,중학교,서울특별시 금천구 탑골로10길 45 (시흥동),37.45224509,126.9170405,02-802-0991,http://dongil.sen.ms.kr,공학
문래중학교,3,중학교,"서울특별시 영등포구 선유서로13길 6 (문래동6가,문래중학교)",37.52041649,126.8841421,02-6712-0707,http://mullae.sen.ms.kr,공학
문성중학교,3,중학교,"서울특별시 금천구 독산로102길 78 , 문성중학교 (독산동)",37.476424,126.908017,02-858-8446,http://munseong.sen.ms.kr,공학
문일중학교,3,중학교,"서울특별시 금천구 시흥대로47길 45 , 문일중학교 (시흥동)",37.45033129,126.8985127,02-891-6669,http://moonil.sen.ms.kr,남
세일중학교,3,중학교,서울특별시 금천구 시흥대로147길 34 (독산동),37.474503,126.895686,02-856-0868,http://seil.sen.ms.kr,공학
시흥중학교,3,중학교,"서울특별시 금천구 시흥대로38길 60 , 시흥중학교 (시흥동)",37.4462966,126.9050817,02-895-2302,shiheung.sen.ms.kr,공학
신도림중학교,3,중학교,"서울특별시 구로구 경인로63길 74 , 신도림중학교 (신도림동)",37.51074037,126.8848085,02-2676-1993,http://sindorim.sen.ms.kr,공학
안천중학교,3,중학교,"서울특별시 금천구 한내로 69-44 (독산동,안천중학교)",37.459538,126.887366,02-894-1204,http://ancheon.sen.ms.kr,공학
선유중학교,3,중학교,서울특별시 영등포구 선유로 213 (양평동3가),37.532821,126.894357,02-2633-4147,http://seonyoo.sen.ms.kr,공학
양화중학교,3,중학교,"서울특별시 영등포구 당산로 56 (문래동3가,양화중학교)",37.51965987,126.8959936,02-2633-9284,http://yangwha.sen.ms.kr,공학
여의도중학교,3,중학교,"서울특별시 영등포구 국제금융로7길 46 , 여의도중학교 (여의도동)",37.52398056,126.9357536,02-2199-9500,http://yeouido.sen.ms.kr,공학
영남중학교,3,중학교,"서울특별시 영등포구 대림로31나길 17 , 영남중학교 (대림동)",37.497542,126.896254,02-848-9333,http://yeongnam.sen.ms.kr,공학
영림중학교,3,중학교,"서울특별시 구로구 가마산로27길 17 , 영림중학교 (구로동)",37.49722007,126.8906916,02-859-0320,http://younglim.sen.ms.kr,공학
영서중학교,3,중학교,서울특별시 구로구 도림로20길 35 (구로동),37.4892525,126.8944068,02-856-9567,http://yeongseo.sen.ms.kr,공학
영원중학교,3,중학교,"서울특별시 영등포구 영등포로62길 31 (영등포동,영원중학교)",37.51497446,126.9136456,02-843-2028,http://youngwon.sen.ms.kr,공학
오남중학교,3,중학교,서울특별시 구로구 오리로9길 25 (오류동),37.487475,126.836532,02-2687-4235,http://ohnam.sen.ms.kr,공학
경인중학교,3,중학교,서울특별시 구로구 경인로 301 (개봉동),37.49846665,126.8536741,02-2612-3471,kyeongin.sen.ms.kr,공학
오류중학교,3,중학교,서울특별시 구로구 고척로27바길 19 (고척동),37.50786367,126.8462137,02-2612-2602,http://oryu.sen.ms.kr,공학
우신중학교,3,중학교,"서울특별시 구로구 부일로 917 , 우신중학교 (궁동)",37.496241,126.826262,02-2610-1699,http://wooshin.sen.ms.kr,남
윤중중학교,3,중학교,"서울특별시 영등포구 여의동로3길 3 , 윤중중학교 (여의도동)",37.51893165,126.9241249,02-783-4478,http://yunjung.sen.ms.kr,공학
한울중학교,3,중학교,서울특별시 금천구 독산로50길 60 한울중학교,37.4622614,126.9072104,02-856-4941,https://hanwool.sen.ms.kr,공학
경희여자중학교,3,중학교,서울특별시 동대문구 경희대로 26 (회기동),37.594562,127.051427,02-6072-1888,http://kyungheegls.sen.ms.kr,녀
경희중학교,3,중학교,"서울특별시 동대문구 경희대로 26 , 경희중학교 (회기동)",37.594487,127.054904,02-966-6402,http://kyunghee.sen.ms.kr,남
대광중학교,3,중학교,서울특별시 동대문구 안암로 6 (신설동),37.578519,127.024809,02-940-2244,http://dgm.sen.ms.kr,공학
동국대학교사범대학부속중학교,3,중학교,서울특별시 동대문구 장안벚꽃로 201 (장안동),37.57804844,127.0751336,02-6716-1700,http://dongguk.sen.ms.kr,남
동대문중학교,3,중학교,"서울특별시 동대문구 사가정로 59 , 동대문중학교 (전농동)",37.5745089,127.0520944,02-3407-4231,http://dongdaemun.sen.ms.kr,공학
동원중학교,3,중학교,"서울특별시 중랑구 양원역로 32 (망우동, 동원중학교)",37.60382237,127.1095004,02-493-8129,http://dongwon.sen.ms.kr,공학
면목중학교,3,중학교,"서울특별시 중랑구 용마산로70길 37 , 면목중학교 (면목동)",37.58321558,127.0963055,02-437-0292,http://myonmok.sen.ms.kr,공학
봉화중학교,3,중학교,"서울특별시 중랑구 망우로70길 89 (망우동,봉화중학교)",37.596244,127.10397,02-434-0210,http://ibonghwa.sen.ms.kr,공학
상봉중학교,3,중학교,서울특별시 중랑구 상봉중앙로8나길 28 (상봉동),37.601345,127.090001,02-436-4316,https://sangbong.sen.ms.kr,공학
성일중학교,3,중학교,서울특별시 동대문구 왕산로23길 55 (제기동),37.58185167,127.0338508,02-926-0211,http://sungil.sen.ms.kr,공학
송곡중학교,3,중학교,서울특별시 중랑구 양원역로 67 (망우본동,37.605992,127.104901,02-6493-1900,songgok.sen.ms.kr,공학
숭인중학교,3,중학교,"서울특별시 동대문구 천호대로47길 34 (답십리동, 숭인중학교)",37.57391956,127.0440579,02-2215-0176,http://soongin.sen.ms.kr,공학
신현중학교,3,중학교,"서울특별시 중랑구 봉화산로 162 , 신현중학교 (상봉동)",37.60446476,127.0915312,02-3421-0631,http://sinhyeon.sen.ms.kr,공학
영란여자중학교,3,중학교,서울특별시 중랑구 망우로73길 56 (망우동),37.603661,127.104495,02-2209-0143,http://youngran.sen.ms.kr,녀
용마중학교,3,중학교,"서울특별시 중랑구 면목로28길 18 , 용마중학교 (면목동)",37.57450893,127.0862691,02-3496-0200,http://yongma.sen.ms.kr,공학
원묵중학교,3,중학교,"서울특별시 중랑구 신내로23길 57 , 원묵중학교 (묵동)",37.6178483,127.0845217,02-2094-9800,http://wonmook.sen.ms.kr,공학
장안중학교,3,중학교,"서울특별시 중랑구 동일로 780 , 장안중학교 (중화동)",37.600624,127.080729,02-6930-3300,http://jangan70.sen.ms.kr,공학
장평중학교,3,중학교,"서울특별시 동대문구 답십리로72길 158 , 장평중학교 (장안동)",37.56686096,127.070477,02-2243-8282,http://jangpyung.sen.ms.kr,공학
전농중학교,3,중학교,"서울특별시 동대문구 사가정로13길 71 (전농동,전농중학교)",37.58204347,127.0592786,02-2242-6652,http://jeonnong.sen.ms.kr,공학
전동중학교,3,중학교,"서울특별시 동대문구 장안벚꽃로 291 (휘경동,전동중학교)",37.585817,127.070928,02-2212-9266,http://jeondong.sen.ms.kr,공학
전일중학교,3,중학교,"서울특별시 동대문구 사가정로13길 67 , 전일중학교 (전농동)",37.5818177,127.0584632,02-2245-2745,http://jeonil.sen.ms.kr,공학
정화여자중학교,3,중학교,"서울특별시 동대문구 홍릉로15길 50 , 정화여자중학교 (제기동)",37.585632,127.040543,02-966-9332,http://jhg.sen.ms.kr,녀
중랑중학교,3,중학교,"서울특별시 중랑구 동일로140길 33 , 중랑중학교 (중화동)",37.60536258,127.0810862,02-437-5312,http://joongrang.sen.ms.kr,공학
중화중학교,3,중학교,"서울특별시 중랑구 용마산로 364 (면목동,중화중학교)",37.584152,127.095225,02-439-5811,http://junghwa.sen.ms.kr,공학
청량중학교,3,중학교,서울특별시 동대문구 왕산로 301 (청량리동),37.58821749,127.0506242,02-966-4284,http://cheongryang.sen.ms.kr,공학
태릉중학교,3,중학교,서울특별시 중랑구 공릉로2길 60-25 (묵동),37.61253281,127.0834362,02-973-5551,http://taereung.sen.ms.kr,공학
혜원여자중학교,3,중학교,"서울특별시 중랑구 봉우재로58길 39 (망우동,혜원여자중고등학교)",37.592571,127.096717,02-434-5947,http://hyewon.sen.ms.kr,녀
휘경여자중학교,3,중학교,"서울특별시 동대문구 한천로 247 , 휘경여자중학교 (휘경동)",37.58233,127.067638,02-2244-8927,http://hwikyung.sen.ms.kr,녀
휘경중학교,3,중학교,"서울특별시 동대문구 망우로18나길 20 (휘경동,휘경중학교)",37.586969,127.062217,02-2244-1359,http://hwigyong.sen.ms.kr,공학
강남중학교,3,중학교,"서울특별시 동작구 대방동15길 29 (대방동, 강남중학교)",37.5027707,126.9224879,02-814-5637,http://kangnam.sen.ms.kr,공학
강현중학교,3,중학교,"서울특별시 동작구 상도로13라길 22 , 강현중학교 (상도동)",37.50311409,126.9307546,02-815-3939,http://sganghyeon.sen.ms.kr,공학
관악중학교,3,중학교,"서울특별시 관악구 남부순환로237길 60 , 관악중학교 (봉천동)",37.481259,126.9619119,02-889-1782,http://gwanak.sen.ms.kr,공학
광신중학교,3,중학교,"서울특별시 관악구 광신길 141 , 광신중학교 (신림동)",37.465263,126.925053,02-881-8652,http://kwangshin.sen.ms.kr,공학
국사봉중학교,3,중학교,"서울특별시 동작구 양녕로20길 20 , 국사봉중학교 (상도동)",37.49353083,126.9440571,02-823-8715,http://kuksabong.sen.ms.kr,공학
난우중학교,3,중학교,"서울특별시 관악구 난곡로16길 32 , 난우중학교 (신림동)",37.4666807,126.9228102,02-864-4017,http://nanwoo.sen.ms.kr,공학
남강중학교,3,중학교,"서울특별시 관악구 난곡로34길 80 (신림동,남강중고등학교)",37.471352,126.924708,02-839-1710,http://namkang.sen.ms.kr,남
남서울중학교,3,중학교,"서울특별시 관악구 남부순환로172길 97 , 남서울중학교 (신림동)",37.4817652,126.9214218,02-855-9832,https://namseoul.sen.ms.kr,공학
남성중학교,3,중학교,"서울특별시 동작구 남부순환로269길 166 (사당동,남성중학교)",37.4790094,126.9724139,02-520-7500,http://namsung.sen.ms.kr,공학
당곡중학교,3,중학교,"서울특별시 관악구 봉천로13길 101 , 당곡중학교 (봉천동)",37.49235719,126.9326778,02-870-7700,http://danggok.sen.ms.kr,공학
대방중학교,3,중학교,"서울특별시 동작구 여의대방로10길 24 (신대방동, 대방중학교)",37.495123,126.913811,02-831-2502,http://daebang.sen.ms.kr,공학
동양중학교,3,중학교,"서울특별시 동작구 흑석로9길 94 , 동양중학교 (흑석동)",37.5101255,126.9562366,02-814-9652,https://dongyang.sen.ms.kr,남
동작중학교,3,중학교,서울특별시 동작구 동작대로39가길 83 (동작동),37.49546294,126.9778041,02-591-6595,http://dongjak.sen.ms.kr,공학
문창중학교,3,중학교,서울특별시 동작구 여의대방로22나길 40 (신대방동),37.49586121,126.9224067,02-821-2359,http://munchang.sen.ms.kr,공학
미성중학교,3,중학교,서울특별시 관악구 문성로16길 40 (신림동),37.4754058,126.9122182,02-860-0900,http://misung.sen.ms.kr,공학
봉림중학교,3,중학교,서울특별시 관악구 장군봉길 72 (봉천동),37.480679,126.938197,02-888-1281,http://bongrim.sen.ms.kr,공학
봉원중학교,3,중학교,"서울특별시 관악구 관악로24가길 15 , 봉원중학교 (봉천동,봉원중학교)",37.48391754,126.9582517,02-879-1543,https://bongwon.sen.ms.kr,공학
사당중학교,3,중학교,"서울특별시 동작구 사당로9가길 58 , 사당중학교 (사당동)",37.48776263,126.9685391,02-537-7157,http://sadang.sen.ms.kr,공학
상도중학교,3,중학교,"서울특별시 동작구 사당로2가길 72 , 상도중학교 (사당동)",37.49092127,126.9614773,02-5808-900,http://seoulsangdo.sen.ms.kr,공학
상현중학교,3,중학교,서울특별시 동작구 사당로2길 2-19 (상도동),37.49407444,126.9603901,02-815-5375,http://sanghyun.sen.ms.kr,공학
서울문영여자중학교,3,중학교,서울특별시 관악구 관악로 85 (봉천동),37.473907,126.951521,02-871-8921,http://smy.sen.ms.kr,녀
성남중학교,3,중학교,서울특별시 동작구 대방동길 74 (대방동),37.504442,126.927423,02-815-1332,http://sungnam.sen.ms.kr,남
성보중학교,3,중학교,서울특별시 관악구 남부순환로156길 39 성보중학교 (신림동),37.480339,126.921761,02-818-9700,http://sungbo.sen.ms.kr,공학
신관중학교,3,중학교,"서울특별시 관악구 신림로48길 17-16 , (신림동 신관중학교)",37.480225,126.934289,02-885-6893,http://shingwan.sen.ms.kr,공학
삼성중학교,3,중학교,"서울특별시 관악구 신림로3가길 39-24 (신림동,삼성중학교)",37.46760626,126.942512,02-871-6242,http://samsung.sen.ms.kr,공학
신림중학교,3,중학교,"서울특별시 관악구 신림로 40 (신림동,신림중학교)",37.470424,126.944953,02-882-1929,http://shillim.sen.ms.kr,공학
영등포중학교,3,중학교,"서울특별시 동작구 등용로8길 5 , 영등포중학교 (대방동)",37.507427,126.933516,02-815-6572,http://yeongdeungpo.sen.ms.kr,공학
인헌중학교,3,중학교,"서울특별시 관악구 인헌9길 35 , 인헌중학교 (봉천동)",37.47260052,126.9688303,02-877-6760,http://inhun.sen.ms.kr,공학
장승중학교,3,중학교,"서울특별시 동작구 장승배기로10가길 25 , 장승중학교 (상도동)",37.5031484,126.9408336,02-812-4416,https://jangseung.sen.ms.kr,공학
중앙대학교사범대학부속중학교,3,중학교,"서울특별시 동작구 서달로 124 , 중앙대학교사범대학부속중학교 (흑석동)",37.50362915,126.9617331,02-827-9114,http://cau.sen.ms.kr,공학
공릉중학교,3,중학교,"서울특별시 노원구 노원로1길 42 (공릉동,공릉중학교)",37.62222733,127.0836011,02-971-5212,http://kongrung.sen.ms.kr,공학
광운중학교,3,중학교,"서울특별시 노원구 광운로1길 24 (월계동,광운중학교)",37.621108,127.055807,02-942-2293,http://kwangwoon.sen.ms.kr,남
노곡중학교,3,중학교,"서울특별시 도봉구 노해로70길 95 (창동,노곡중학교)",37.648795,127.05354,02-996-5232,http://nogok.sen.ms.kr,공학
노원중학교,3,중학교,"서울특별시 노원구 동일로213길 26 (상계동,노원중학교)",37.649085,127.059726,02-3391-6921,http://nowon.sen.ms.kr,공학
노일중학교,3,중학교,"서울특별시 노원구 동일로231길 24 , 노일중학교 (상계동)",37.6734085,127.0537895,02-3391-0092,http://noil.sen.ms.kr,공학
녹천중학교,3,중학교,서울특별시 노원구 월계로 376 (월계동),37.631806,127.0622792,02-978-4592,http://nokcheon.sen.ms.kr,공학
도봉중학교,3,중학교,"서울특별시 도봉구 마들로 671 (도봉동,도봉중학교)",37.67088312,127.0458698,02-954-4117,http://dobong.sen.ms.kr,공학
방학중학교,3,중학교,"서울특별시 도봉구 시루봉로 188 , 방학중학교 (방학동)",37.66544969,127.0308603,02-956-8343,http://banghak.sen.ms.kr,공학
백운중학교,3,중학교,서울특별시 도봉구 도봉로129길 50 (쌍문동),37.65640601,127.0359063,02-998-4035,http://baekwoon.sen.ms.kr,공학
북서울중학교,3,중학교,서울특별시 도봉구 도봉로169가길 33 (도봉동),37.681245,127.042944,02-956-1004,https://bukseoul.sen.ms.kr,공학
불암중학교,3,중학교,"서울특별시 노원구 한글비석로5길 45 , 불암중학교 (하계동)",37.64573538,127.0734567,02-975-4047,http://bulam.sen.ms.kr,공학
상경중학교,3,중학교,"서울특별시 노원구 동일로227길 61 (상계동, 상경중학교)",37.66714976,127.0537063,02-939-3951,https://sanggyung.sen.ms.kr/,공학
상계제일중학교,3,중학교,"서울특별시 노원구 덕릉로86길 29-15 , 상계제일중학교 (중계동)",37.66107434,127.0780777,02-930-3543,http://sanggyejeil.sen.ms.kr,공학
상계중학교,3,중학교,"서울특별시 노원구 노원로 398 (상계동, 상계중학교)",37.652222,127.068915,02-936-6450,http://sanggye.sen.ms.kr,공학
상명중학교,3,중학교,"서울특별시 노원구 덕릉로 553 , 상명중학교 (중계동)",37.649236,127.067678,02-971-6213,http://sangmyung.sen.ms.kr,공학
상원중학교,3,중학교,서울특별시 노원구 수락산로 182 (상계동),37.6715412,127.0595562,02-930-0761,http://sangwon.sen.ms.kr,공학
선덕중학교,3,중학교,"서울특별시 도봉구 시루봉로 53 , 선덕중학교 (쌍문동)",37.65507873,127.0261507,02-993-4112,http://sunduck.sen.ms.kr,공학
수락중학교,3,중학교,"서울특별시 노원구 동일로 1729 , 수락중학교 (상계동)",37.68314343,127.0548107,02-2092-1900,http://surak.sen.ms.kr,공학
신도봉중학교,3,중학교,서울특별시 도봉구 도봉로115길 16 (쌍문동),37.649203,127.033164,02-992-3462,http://sindobong.sen.ms.kr,공학
신방학중학교,3,중학교,"서울특별시 도봉구 시루봉로 156 , 신방학중학교 (방학동)",37.664177,127.029473,02-956-8234,http://sbh.sen.ms.kr,공학
신상중학교,3,중학교,"서울특별시 노원구 동일로216길 42 (상계동,신상중학교)",37.6516027,127.0635236,02-932-0595,http://sinsang.sen.ms.kr,공학
신창중학교,3,중학교,"서울특별시 노원구 월계로45길 92 (월계동,신창중학교)",37.628237,127.047826,02-904-4206,http://sc.sen.ms.kr,공학
염광중학교,3,중학교,"서울특별시 노원구 월계로45가길 9 , 노원구 월계동 820 (월계동)",37.62996,127.050482,02-906-1102,http://yumkwang.sen.ms.kr,공학
온곡중학교,3,중학교,"서울특별시 노원구 노원로 492 (상계동,온곡중학교)",37.659989,127.06471,02-934-8908,http://ongok.sen.ms.kr,공학
월계중학교,3,중학교,서울특별시 노원구 월계로45가길 54 (월계동),37.630568,127.052155,02-993-3115,http://wolgye.sen.ms.kr,공학
재현중학교,3,중학교,"서울특별시 노원구 덕릉로82길 64 (중계동,재현중/고등학교)",37.66128875,127.080798,02-932-4816,http://jaehyun.sen.ms.kr,공학
정의여자중학교,3,중학교,"서울특별시 도봉구 노해로49길 69 , 정의여자중학교 (쌍문동)",37.653429,127.032048,02-3499-5300,http://jeongeui.sen.ms.kr,녀
중계중학교,3,중학교,서울특별시 노원구 덕릉로76길 23 (중계동),37.655099,127.075197,02-932-2545,http://junggye.sen.ms.kr,공학
중원중학교,3,중학교,"서울특별시 노원구 공릉로 420 (중계동,중원중학교)",37.644038,127.068068,02-971-2788,https://joongwon.sen.ms.kr,공학
중평중학교,3,중학교,"서울특별시 노원구 동일로203길 87 (하계동,중평중학교)",37.63697701,127.062336,02-977-3026,http://jungpyong.sen.ms.kr/,공학
창동중학교,3,중학교,"서울특별시 도봉구 방학로 32 , 창동중학교 (방학동)",37.662729,127.049644,02-2289-6600,http://changdong.sen.ms.kr,공학
창북중학교,3,중학교,"서울특별시 도봉구 노해로62길 33 (창동,창북중학교)",37.64911433,127.0388354,02-907-7006,http://changbook.sen.ms.kr,공학
창일중학교,3,중학교,"서울특별시 도봉구 노해로66길 60 (창동,창일중학교)",37.648114,127.04713,02-994-5934,http://changil.sen.ms.kr,공학
청원중학교,3,중학교,"서울특별시 노원구 한글비석로 506 , 청원중학교 (상계동,청원초/중/고등학교)",37.666608,127.061668,02-3399-7878,http://cheongwon.sen.ms.kr,공학
태랑중학교,3,중학교,"서울특별시 노원구 화랑로51나길 51 , 태랑중학교 (공릉동)",37.6269902,127.0912869,02-973-1355,http://taerang.sen.ms.kr,공학
하계중학교,3,중학교,서울특별시 노원구 노원로 261-8 (하계동),37.640784,127.071573,02-3399-0200,http://hagye.sen.ms.kr,공학
한천중학교,3,중학교,"서울특별시 노원구 공릉로 265 (공릉동, 한천중학교)",37.63131305,127.0724411,02-948-5554,http://hancheon.sen.ms.kr,공학
경성중학교,3,중학교,"서울특별시 마포구 성미산로 111 , 경성중학교 (연남동,경성중고등학교)",37.56350983,126.9191674,02-3140-1114,http://gyeongseong.sen.ms.kr,남
광성중학교,3,중학교,"서울특별시 마포구 신수로8길 20 (신수동,광성중고등학교)",37.548432,126.936905,02-703-3456,http://kwangsung.sen.ms.kr,남
구산중학교,3,중학교,"서울특별시 은평구 갈현로15길 20-23 (구산동,구산중학교)",37.60976354,126.9097172,02-389-8785,http://gusanjung.sen.ms.kr,공학
대성중학교,3,중학교,"서울특별시 은평구 갈현로29길 51-24 , 대성중학교 (갈현동)",37.622193,126.909558,02-6252-1100,https://dsms.sen.ms.kr,남
덕산중학교,3,중학교,서울특별시 은평구 가좌로 400 (신사동),37.60201443,126.9043814,02-3146-7200,https://duksan.sen.ms.kr,공학
동도중학교,3,중학교,서울특별시 마포구 백범로 139 동도중학교,37.54670213,126.9469053,02-716-5391,http://dong-do.sen.ms.kr,공학
동명여자중학교,3,중학교,서울특별시 서대문구 독립문로 49 (천연동),37.56861668,126.9622523,02-363-5043,http://dongmyunggirls.sen.ms.kr,녀
명지중학교,3,중학교,서울특별시 서대문구 명지2길 56 (홍은동),37.5849118,126.9270922,02-302-7072,http://myongji.sen.ms.kr,공학
불광중학교,3,중학교,"서울특별시 은평구 불광로 180 , 불광중학교 (불광동)",37.623323,126.931642,02-384-6591,http://bulgwang.sen.ms.kr,공학
상신중학교,3,중학교,서울특별시 은평구 증산로15길 61 (신사동),37.58978421,126.9064261,02-305-5139,http://sangsin.sen.ms.kr,공학
서연중학교,3,중학교,서울특별시 서대문구 연희로11마길 9-6 (연희동),37.568327,126.9275,02-332-7376,http://seoyun.sen.ms.kr,공학
서울여자중학교,3,중학교,"서울특별시 마포구 백범로25길 34 , 서울여자중학교 (염리동)",37.5486,126.948388,02-716-5041,https://seoul.sen.ms.kr,녀
선일여자중학교,3,중학교,"서울특별시 은평구 갈현로29길 27 , 선일여자중학교 (갈현동)",37.61971637,126.9127997,02-355-0161,http://sunil.sen.ms.kr,녀
선정중학교,3,중학교,"서울특별시 은평구 서오릉로20길 19 , 선정중학교 (갈현동)",37.618573,126.9087,02-3156-1400,https://sunjung.sen.ms.kr,공학
성사중학교,3,중학교,"서울특별시 마포구 모래내로9길 16 , 성사중학교 (성산동)",37.56808947,126.9126833,02-373-8002,http://sungsa.sen.ms.kr,공학
성산중학교,3,중학교,서울특별시 마포구 성지1길 32-13 (합정동),37.547275,126.915863,02-332-0306,http://sungsan.sen.ms.kr,공학
성서중학교,3,중학교,서울특별시 마포구 성산로4길 42 (성산동),37.56278803,126.9079539,02-3140-7100,http://sungseo.sen.ms.kr,공학
숭문중학교,3,중학교,"서울특별시 마포구 숭문길 99 , 숭문중고등학교 (대흥동)",37.551585,126.945079,02-715-4463,http://soongmoon.sen.ms.kr/,남
숭실중학교,3,중학교,서울특별시 은평구 은평터널로7길 6 (신사동),37.593288,126.905239,02-373-7641,https://soongsil.sen.ms.kr/,남
신수중학교,3,중학교,"서울특별시 마포구 신수로 49 , 신수중학교 (신수동)",37.54592444,126.9341324,02-717-6004,http://sinsu.sen.ms.kr,공학
신연중학교,3,중학교,서울특별시 서대문구 모래내로 408 (연희동),37.58271696,126.9398378,02-379-4317,http://sinyeon.sen.ms.kr,공학
아현중학교,3,중학교,"서울특별시 마포구 마포대로 247 (아현동,아현중학교)",37.5562,126.957092,02-363-1813,http://ahyeon.sen.ms.kr,공학
연북중학교,3,중학교,"서울특별시 서대문구 연희로36길 32 (연희동,연북중학교)",37.57757699,126.9384789,02-332-7378,http://yeonbuk.sen.ms.kr,공학
연서중학교,3,중학교,"서울특별시 은평구 증산서길 125-6 (증산동,연서중학교)",37.5872351,126.9096266,02-6715-8000,http://yeonseo.sen.ms.kr,공학
연신중학교,3,중학교,"서울특별시 은평구 연서로33길 16-32 (연신중학교, 불광동)",37.623888,126.924851,02-383-7831,http://yonsin.sen.ms.kr,공학
연천중학교,3,중학교,서울특별시 은평구 연서로41길 30 (불광동),37.627527,126.925832,02-354-0514,http://yonchon.sen.ms.kr,공학
연희중학교,3,중학교,서울특별시 서대문구 증가로 170 (남가좌동),37.57958692,126.9187923,02-372-2992,https://yonhi.sen.ms.kr,공학
영락중학교,3,중학교,"서울특별시 은평구 백련산로 134-6 , 영락중학교 (응암동)",37.59695868,126.9251826,02-388-4033,http://yn.sen.ms.kr,공학
예일여자중학교,3,중학교,서울특별시 은평구 연서로 117 (구산동),37.610436,126.915976,02-380-0905,https://yale.sen.ms.kr/,녀
은평중학교,3,중학교,서울특별시 은평구 갈현로17나길 12-1 (구산동),37.610991,126.90912,02-382-3545,http://eunpyeong.sen.ms.kr,공학
이화여자대학교사범대학부속이화·금란중학교,3,중학교,서울특별시 서대문구 성산로 520 (대신동),37.56312436,126.9443854,02-392-6175,ewha.sen.ms.kr,공학
인창중학교,3,중학교,"서울특별시 서대문구 경기대로 65 (충정로2가,인창중학교)",37.56488351,126.9640244,02-300-4567,http://ic.sen.ms.kr,남
정원여자중학교,3,중학교,"서울특별시 서대문구 연희로37안길 51 , 정원여자중학교 (홍은동)",37.58538041,126.9333414,02-394-6301,https://jungwon.sen.ms.kr/,녀
중암중학교,3,중학교,"서울특별시 마포구 월드컵북로38길 25 (중동,중암중학교)",37.5724324,126.9035861,02-309-5778,http://joongam.sen.ms.kr,공학
중앙여자중학교,3,중학교,"서울특별시 서대문구 북아현로11가길 7 (북아현동, 중앙여자중학교)",37.562055,126.952655,02-362-3063,http://jungang1940.sen.ms.kr,녀
증산중학교,3,중학교,"서울특별시 은평구 증산로5길 27-30 , 증산중학교 (증산동)",37.58381485,126.9049391,02-303-9294,http://jeungsan.sen.ms.kr,공학
충암중학교,3,중학교,서울특별시 은평구 가좌로5길 5 (응암동),37.58529776,126.9219653,070-5002-8740,https://choongam.sen.ms.kr/,공학
한성중학교,3,중학교,"서울특별시 서대문구 북아현로1길 24 (북아현동,한성중학교)",37.559958,126.955287,02-365-4942,http://hanseong.sen.ms.kr,남
홍은중학교,3,중학교,서울특별시 서대문구 연희로41길 94 (홍은동),37.5926855,126.9351327,02-3216-0512,http://hongeun.sen.ms.kr,공학
홍익대학교사범대학부속여자중학교,3,중학교,서울특별시 마포구 성미산로 51 (성산동),37.560307,126.913483,02-331-7410,http://hongikg.sen.ms.kr,녀
건국대학교사범대학부속중학교,3,중학교,서울특별시 광진구 자양로 145-1 건국대학교사범대학부속중학교,37.54172317,127.0815966,02-457-0318,http://konkuk.sen.ms.kr,공학
경수중학교,3,중학교,서울특별시 성동구 뚝섬로13길 14 (성수동2가),37.53950922,127.0592721,02-464-0675,http://gsu.sen.ms.kr,공학
광남중학교,3,중학교,"서울특별시 광진구 아차산로70길 17-62 , 광남중학교 (광장동)",37.5402625,127.1014027,02-456-8792,http://gwangnam.sen.ms.kr,공학
광양중학교,3,중학교,서울특별시 광진구 자양로3길 7 (자양동),37.530258,127.086019,02-452-6922,http://kwangyang.sen.ms.kr,공학
광장중학교,3,중학교,"서울특별시 광진구 광장로1길 1 , 광장중학교 (광장동)",37.54717824,127.1019262,02-452-0745,http://gwangjang.sen.ms.kr,공학
광진중학교,3,중학교,"서울특별시 광진구 뚝섬로64길 45 (자양동,광진중학교)",37.532,127.0896,02-447-2886,http://gwangjin.sen.ms.kr,공학
광희중학교,3,중학교,"서울특별시 성동구 독서당로62길 46 , 광희중학교 (응봉동)",37.551112,127.033816,02-2298-0250,http://kwanghee.sen.ms.kr,공학
구의중학교,3,중학교,서울특별시 광진구 광나루로30길 80 (화양동),37.54284949,127.0788414,02-447-4798,http://guui.sen.ms.kr,공학
대원국제중학교,3,중학교,"서울특별시 광진구 용마산로22길 26 , 대원국제중학교 (중곡동)",37.563827,127.089441,02-2204-1592,http://daewon.ms.kr,공학
동마중학교,3,중학교,서울특별시 성동구 마조로11길 18 (마장동),37.5628026,127.0403525,02-2294-6085,http://dongma.sen.ms.kr,공학
동국대학교사범대학부속가람중학교,3,중학교,"서울특별시 광진구 광나루로36길 47 , 동국대학교사범대학부속가람중학교 (구의동)",37.542281,127.086583,02-6948-2280,https://garam.sen.ms.kr,공학
무학중학교,3,중학교,서울특별시 성동구 행당로 120 (행당동),37.55770191,127.0319928,02-2298-6141,http://muhak.sen.ms.kr,공학
성수중학교,3,중학교,"서울특별시 성동구 서울숲길 18 (성수동1가, 성수중학교)",37.547095,127.03898,02-463-4786,http://seongsu.sen.ms.kr,공학
성원중학교,3,중학교,"서울특별시 성동구 성덕정9가길 13 (성수동2가, 성원중학교)",37.53945164,127.0513833,02-3408-2558,http://sungwon.sen.ms.kr,공학
신양중학교,3,중학교,"서울특별시 광진구 자양강변길 73 , 신양중학교 (자양동)",37.53365056,127.0634265,02-461-1070,http://shinyang.sen.ms.kr,공학
옥정중학교,3,중학교,"서울특별시 성동구 한림말길 11 , 옥정중학교 (옥수동)",37.54167136,127.0129854,02-6021-2100,http://okjung.sen.ms.kr,공학
용곡중학교,3,중학교,"서울특별시 광진구 용마산로22길 76 (중곡동,용곡중학교)",37.56595099,127.089089,02-452-2622,http://yonggok.sen.ms.kr/index.do,공학
자양중학교,3,중학교,"서울특별시 광진구 뚝섬로41길 33 (자양동,서울자양중학교)",37.53539931,127.0743848,02-446-0365,http://jayang.sen.ms.kr,공학
한양대학교사범대학부속중학교,3,중학교,"서울특별시 성동구 마조로 42 (사근동,한양사대부속중·고등학교)",37.561657,127.043153,02-2200-3700,https://hyu.sen.ms.kr,공학
행당중학교,3,중학교,"서울특별시 성동구 왕십리로 189 (행당동,행당중학교)",37.55459574,127.0420049,02-2292-2721,http://haengdang.sen.ms.kr,공학
강북중학교,3,중학교,"서울특별시 강북구 한천로150길 67 (수유동, 강북중학교)",37.64491581,127.0253721,02-999-4104,http://kangbuk.sen.ms.kr,공학
고려대학교사범대학부속중학교,3,중학교,"서울특별시 성북구 정릉로 161 (정릉동,고려대학교사범대학부속중학교)",37.610369,127.001088,02-914-8853,http://koryo.sen.ms.kr,공학
고명중학교,3,중학교,"서울특별시 성북구 북악산로 870 (돈암동,고명중학교)",37.59767639,127.0191869,02-926-2837,http://komyung.sen.ms.kr,남
남대문중학교,3,중학교,"서울특별시 성북구 한천로 660-30 (장위동, 남대문중학교)",37.6186362,127.0557918,02-942-3184,http://namdaemoon.sen.ms.kr,남
동구여자중학교,3,중학교,"서울특별시 성북구 성북로8길 71 (성북동,동구여자중학교)",37.594083,127.007688,02-762-1304,http://dong-gu.sen.ms.kr,녀
번동중학교,3,중학교,"서울특별시 강북구 오현로35길 87 (번동,번동중학교)",37.632574,127.036544,02-945-0168,http://beondong.sen.ms.kr,공학
북악중학교,3,중학교,"서울특별시 성북구 정릉로12길 41 (정릉동,북악중학교)",37.606923,127.001691,02-910-2311,http://bugak.sen.ms.kr,공학
삼선중학교,3,중학교,"서울특별시 성북구 동소문로3길 69 (동소문동4가,삼선중학교)",37.59174917,127.0078716,02-742-1147,http://samseon.sen.ms.kr,남
서라벌중학교,3,중학교,"서울특별시 강북구 삼양로155길 37-9 , 서라벌중학교 (우이동)",37.6566848,127.0107032,070-8280-4600,http://sorabol.sen.ms.kr,남
석관중학교,3,중학교,"서울특별시 성북구 한천로 526 (석관동,석관중학교)",37.6081903,127.0664388,02-962-2276,http://seokgwan.sen.ms.kr,공학
성신여자중학교,3,중학교,"서울특별시 성북구 북악산로 918 (돈암동,성신여자중학교)",37.5936742,127.0233788,02-929-1898,http://sung-shin.sen.ms.kr,녀
성암여자중학교,3,중학교,"서울특별시 강북구 도봉로29길 52 (미아동,학교법인성암학원)",37.6204129,127.0239049,02-2179-1777,http://seongam.sen.ms.kr,녀
수송중학교,3,중학교,"서울특별시 강북구 한천로122길 21 (번동,수송중학교)",37.63680119,127.0339165,02-900-5791,http://soosong.sen.ms.kr,공학
수유중학교,3,중학교,"서울특별시 강북구 인수봉로37길 40 (수유동,수유중학교)",37.63156547,127.010486,02-945-6102,http://suyu.sen.ms.kr,공학
신일중학교,3,중학교,"서울특별시 강북구 솔매로49길 20 (미아동,신일중고등학교)",37.62796578,127.0284024,02-944-9850,http://shinil.sen.ms.kr,남
영훈국제중학교,3,중학교,"서울특별시 강북구 도봉로13가길 19 (미아동,학교법인영훈학원)",37.614308,127.02739,02-970-4777,http://www.younghoon.ms.kr,공학
용문중학교,3,중학교,서울특별시 성북구 고려대로17길 46 (안암동2가),37.58872,127.024353,02-926-4238,http://yongmoon.sen.ms.kr,남
월곡중학교,3,중학교,"서울특별시 성북구 장월로 6 (상월곡동,월곡중학교)",37.60698072,127.0482587,02-6496-6600,http://wolgok.sen.ms.kr,공학
인수중학교,3,중학교,"서울특별시 강북구 인수봉로75길 10 (수유동, 인수중학교)",37.64386577,127.0099212,02-900-7801,http://insu.sen.ms.kr,공학
장위중학교,3,중학교,"서울특별시 성북구 장위로4길 70 (장위동,장위중학교)",37.61129386,127.0408408,02-941-1672,http://jangwi.sen.ms.kr,공학
종암중학교,3,중학교,"서울특별시 성북구 종암로5길 80-17 (종암동,종암중학교)",37.593111,127.0319898,02-928-7041,http://jongam.sen.ms.kr,공학
창문여자중학교,3,중학교,"서울특별시 강북구 월계로 61 (송중동, 창문여자중고등학교)",37.613307,127.036843,02-986-1703,http://changmun.sen.ms.kr,녀
한성여자중학교,3,중학교,"서울특별시 성북구 삼선교로16길 118 (삼선동2가,한성여자중학교)",37.58200014,127.0113123,02-742-2542,http://hansung.sen.ms.kr,녀
홍익대학교사범대학부속중학교,3,중학교,"서울특별시 성북구 성북로14가길 23 , 홍익대학교사범대학부속중학교 (성북동,홍익대학교부속중고등학교)",37.59366671,127.0028036,02-762-0824,http://hongik.sen.ms.kr,남
화계중학교,3,중학교,서울특별시 강북구 화계사길 63 (수유동),37.63251698,127.0097112,02-986-3073,http://hwagye.sen.ms.kr,공학
경신중학교,3,중학교,"서울특별시 종로구 혜화로 74 (혜화동,경신중고등학교)",37.591111,127.001296,02-762-0390,https://ksms.sen.ms.kr,남
금호여자중학교,3,중학교,"서울특별시 중구 청구로 6 , 금호여자중학교 본관동(주1) (신당동)",37.55803964,127.0204625,070-4050-5660,http://kumho.sen.ms.kr,녀
대경중학교,3,중학교,서울특별시 중구 매봉18길 111 (신당동),37.557027,127.017001,02-2235-5158,https://dk.sen.ms.kr,공학
대신중학교,3,중학교,서울특별시 종로구 사직로 9 (행촌동),37.573481,126.962494,02-736-0318,http://dae-shin.sen.ms.kr,남
덕성여자중학교,3,중학교,서울특별시 종로구 율곡로3길 49 (송현동),37.57778625,126.9819095,02-733-4807,http://duksung.sen.ms.kr,녀
덕수중학교,3,중학교,"서울특별시 중구 마른내로9길 10 (인현동2가,덕수중학교)",37.565033,126.99719,02-2265-9063,http://ducksu.sen.ms.kr,공학
동성중학교,3,중학교,서울특별시 종로구 대학로 156 (혜화동),37.5856051,127.0025442,02-3671-9101,sds.sen.ms.kr,남
배문중학교,3,중학교,"서울특별시 용산구 효창원로 258 , 배문중학교 (서계동)",37.54991971,126.9639049,02-3480-7243,http://baemoon.sen.ms.kr,남
배화여자중학교,3,중학교,"서울특별시 종로구 필운대로1길 34 , 배화여자중학교 (필운동)",37.579454,126.966821,02-725-6451,http://paiwha.sen.ms.kr,녀
보성여자중학교,3,중학교,서울특별시 용산구 신흥로3가길 66 (용산동2가),37.542528,126.984355,02-793-0053,http://bosung-g.sen.ms.kr,녀
상명대학교사범대학부속여자중학교,3,중학교,서울특별시 종로구 홍지문2길 20 (홍지동),37.602628,126.9541,02-394-8672,https://sangmyung-agm.sen.ms.kr,녀
선린중학교,3,중학교,서울특별시 용산구 원효로97길 33-4 (청파동3가),37.542754,126.965028,02-713-6214,http://sunrin.sen.ms.kr,공학
성심여자중학교,3,중학교,"서울특별시 용산구 원효로19길 49 , 성심여자중학교 (원효로4가)",37.534577,126.954445,02-3273-4132,http://sacredheart.sen.ms.kr,녀
숭의여자중학교,3,중학교,서울특별시 동작구 여의대방로36길 79 (대방동),37.508308,126.928987,02-810-7700,http://seg.sen.ms.kr,녀
신광여자중학교,3,중학교,서울특별시 용산구 청파로 263 (청파동3가),37.5431703,126.9699957,02-710-6990,http://shinkwang.sen.ms.kr,녀
오산중학교,3,중학교,"서울특별시 용산구 보광로7길 17 (보광동,오산중학교)",37.523974,126.999569,02-7999-400,http://osan.sen.ms.kr,남
용강중학교,3,중학교,서울특별시 용산구 이촌로65가길 91 (이촌동),37.5215772,126.9754842,02-795-6176,http://yonggang.sen.ms.kr,공학
용산중학교,3,중학교,서울특별시 용산구 두텁바위로 74 (용산동2가),37.54606741,126.9809259,070-4000-3800,http://ys.sen.ms.kr,남
장원중학교,3,중학교,서울특별시 중구 동호로15길 93-34 (신당동),37.55396515,127.0060433,02-2238-1181,http://jangwon.sen.ms.kr,공학
장충중학교,3,중학교,서울특별시 중구 동호로15길 93 (신당동),37.553109,127.006169,02-2233-9990,http://jangchung.sen.ms.kr,남
중앙중학교,3,중학교,서울특별시 종로구 창덕궁길 164 (계동),37.586097,126.986677,02-742-1325,http://choongang.sen.ms.kr,공학
창덕여자중학교,3,중학교,"서울특별시 중구 정동길 22 , 창덕여자중학교 (정동)",37.56643109,126.9692123,02-2125-8000,http://cd.sen.ms.kr,녀
청운중학교,3,중학교,서울특별시 종로구 창의문로 51 (청운동),37.58917265,126.971087,02-737-0582,https://cheongun.sen.ms.kr,남
한강중학교,3,중학교,서울특별시 용산구 녹사평대로 73 (서빙고동),37.52361219,126.9927917,02-794-1791,http://hangang.sen.ms.kr,공학
한양중학교,3,중학교,서울특별시 중구 을지로 299 (신당동),37.565719,127.010857,02-2234-4725,http://hanyang.sen.ms.kr,남
환일중학교,3,중학교,서울특별시 중구 환일길 47 (만리동2가),37.5538606,126.9619374,02-390-7211,http://www.hwanil.ms.kr,남
서울체육중학교,3,중학교,"서울특별시 송파구 강동대로 232 , 서울체육중학교 (방이동)",37.521752,127.129926,02-2140-9801,http://cheyuk.sen.ms.kr/,공학
삼각산중학교,3,중학교,"서울특별시 강북구 삼양로19길 141 , 삼각산중학교 (미아동)",37.616173,127.015501,02-944-4999,http://samgaksan.sen.ms.kr,공학
을지중학교,3,중학교,서울특별시 노원구 덕릉로 580 (중계동),37.649707,127.071756,02-938-7082,http://eulji.sen.ms.kr,공학
구암중학교,3,중학교,서울특별시 관악구 성현로 53 (봉천동),37.49276524,126.9486035,02-881-2900,http://guahm.sen.ms.kr,공학
경일중학교,3,중학교,서울특별시 성동구 성수일로 27 (성수동1가),37.543346,127.048384,02-468-0651,http://kyungil.sen.ms.kr,공학
마장중학교,3,중학교,"서울특별시 성동구 마장로35나길 31 , 마장중학교 (마장동)",37.56830886,127.0421258,02-2282-2933,http://mj.sen.ms.kr,공학
개운중학교,3,중학교,"서울특별시 성북구 북악산로 935 (돈암동,개운중학교)",37.59462638,127.0248432,02-3291-5492,http://gw.sen.ms.kr,공학
양진중학교,3,중학교,"서울특별시 광진구 워커힐로 32 , 양진중학교",37.54457562,127.0983107,02-2049-1200,http://yangjin.sen.ms.kr,공학
염경중학교,3,중학교,"서울특별시 강서구 양천로69길 35 (염창동,염경중학교)",37.55453944,126.8705313,02-3661-6252,http://yeomgyeong.sen.ms.kr,공학
효문중학교,3,중학교,"서울특별시 도봉구 우이천로 432 (쌍문동, 효문중 고등학교)",37.652264,127.018402,02-999-1785,http://hyomun.sen.ms.kr,공학
상암중학교,3,중학교,서울특별시 마포구 상암산로1길 26 (상암동),37.5788468,126.8878697,02-375-5300,http://sangam.sen.ms.kr,공학
수명중학교,3,중학교,"서울특별시 강서구 수명로2길 16 (내발산동,수명중학교)",37.548803,126.823596,02-6738-1200,http://sumyeong.sen.ms.kr,공학
진관중학교,3,중학교,서울특별시 은평구 진관4로 36 (진관동),37.64425726,126.9257289,02-383-5379,http://jingwan.sen.ms.kr,공학
목운중학교,3,중학교,"서울특별시 양천구 목동동로 235 (목동,목운초.중학교)",37.527223,126.872698,02-2651-4060,http://mogun.sen.ms.kr,공학
솔샘중학교,3,중학교,"서울특별시 강북구 인수봉로 39 (미아동, 솔샘중.고등학교)",37.6235558,127.012212,02-981-6872,https://solsaem.sen.ms.kr,공학
인왕중학교,3,중학교,"서울특별시 서대문구 세검정로4길 , 69 (홍제동)",37.59272346,126.9517777,02-396-5406,http://inwang.sen.ms.kr,공학
문현중학교,3,중학교,"서울특별시 송파구 충민로 99 (장지동, 문현중학교)",37.480955,127.127977,02-407-4095,http://munhyeon.sen.ms.kr,공학
강명중학교,3,중학교,"서울특별시 강동구 상일로12길 56 (강일동, 강명중학교)",37.55559451,127.1748984,02-440-3200,http://gangmyoung.sen.ms.kr,공학
강동중학교,3,중학교,"서울특별시 강동구 풍산로 237 , 강동중학교 (강일동)",37.56964926,127.1778381,02-481-1502,http://gang-dong.sen.ms.kr,공학
신도중학교,3,중학교,서울특별시 은평구 진관1로 77-30 (진관동),37.63298366,126.930879,02-389-4330,http://shindo.sen.ms.kr,공학
창천중학교,3,중학교,서울특별시 마포구 백범로1길 56 (노고산동),37.5549751,126.9390619,02-701-9595,https://changchun.sen.ms.kr,공학
천왕중학교,3,중학교,"서울특별시 구로구 천왕로 63 (천왕동, 천왕중학교)",37.48265604,126.8373334,02-2618-2832,http://cheonwang.sen.ms.kr,공학
가재울중학교,3,중학교,"서울특별시 서대문구 수색로 100-75 (북가좌동, 가재울중학교)",37.57517285,126.9099537,02-726-1700,http://gajaeul.sen.ms.kr,공학
위례솔중학교,3,중학교,"서울특별시 송파구 위례북로2길 10 , 위례솔중학교 (거여동)",37.487252,127.150259,02-402-0122,wiryesol.sen.ms.kr,공학
길음중학교,3,중학교,"서울특별시 성북구 길음로 144 , 길음중학교 (길음동)",37.6140891,127.017456,02-910-8770,http://gireum.sen.ms.kr,공학
마곡중학교,3,중학교,서울특별시 강서구 마곡중앙5로 58 (마곡동),37.56798307,126.8214007,02-2666-8502,http://magok.sen.ms.kr,공학
숭곡중학교,3,중학교,"서울특별시 성북구 종암로 208 , 숭곡중학교 (하월곡동)",37.60862,127.031324,02-912-7572,http://soonggok.sen.ms.kr,공학
세곡중학교,3,중학교,"서울특별시 강남구 자곡로 81 (자곡동, 세곡중학교)",37.4715425,127.0922007,02-2040-2900,http://segok.sen.ms.kr,공학
송례중학교,3,중학교,서울특별시 송파구 위례순환로 429 (장지동),37.477883,127.139596,02-2144-2800,http://songrye.sen.ms.kr,공학
내곡중학교,3,중학교,서울특별시 서초구 청계산로7길 9-20 (신원동),37.45255,127.054303,02-571-9532,https://naegok.sen.ms.kr,공학
항동중학교,3,중학교,"서울특별시 구로구 연동로 239-2 (항동, 항동중학교)",37.4827484,126.820242,02-2223-0223,http://hangdong.sen.ms.kr,공학
신길중학교,3,중학교,"서울특별시 영등포구 신길로28길 43 (신길동, 신길중학교)",37.50189,126.9155233,02-6956-4770,http://singil.sen.ms.kr,공학
마곡하늬중학교,3,중학교,서울특별시 강서구 마곡서1로 16 (마곡동),37.5580068,126.8208606,02-6985-5900,http://magokhanui.sen.ms.kr,공학
해누리중학교,3,중학교,"서울특별시 송파구 송파대로37길 95 , 해누리중학교 (가락동)",37.4983635,127.1019563,02-3469-4800,http://haenuri.sen.ms.kr,공학
강빛중학교,3,중학교,"서울특별시 강동구 아리수로93다길 1 (강일동, 강빛초중통합학교)",37.573938,127.170899,02-6951-3964,http://gbm.sen.ms.kr,공학
